City_ID,City,Lat,Lng,Max Temp,Humidity,Cloudiness,Wind Speed,Country,Date
0,invercargill,-46.4,168.35,284.27,71,91,7.15,NZ,1709921136
1,yeniseysk,58.4497,92.1703,250.34,100,87,0.89,RU,1709921137
2,badger,64.8,-147.5333,255.03,63,75,0.0,US,1709921139
3,wailua homesteads,22.0669,-159.378,294.12,77,75,9.77,US,1709921140
4,trujillo,-8.116,-79.03,298.13,78,0,5.66,PE,1709921141
5,vanimo,-2.6741,141.3028,298.64,91,84,2.59,PG,1709921142
6,adamstown,-25.066,-130.1015,298.22,77,9,3.29,PN,1709921144
7,port-aux-francais,-49.35,70.2167,278.79,68,60,7.93,TF,1709921145
8,fairfield,41.2668,-73.3162,285.96,44,0,5.14,US,1709921146
9,richards bay,-28.783,32.0377,298.9,83,58,5.73,ZA,1709921148
10,bela,25.9333,81.9833,292.64,31,0,3.78,IN,1709921149
11,moyale,3.5167,39.0584,301.83,40,74,3.52,KE,1709921150
12,at-bashi,41.1702,75.8106,261.7,81,30,1.69,KG,1709921152
13,bredasdorp,-34.5322,20.0403,292.92,72,1,3.19,ZA,1709921153
14,puerto natales,-51.7236,-72.4875,283.4,87,100,1.03,CL,1709921155
15,primero de mayo,-32.2552,-58.4228,306.38,38,28,3.78,AR,1709921156
16,bethel,41.3712,-73.414,285.87,40,0,1.54,US,1709921157
17,kalabo,-14.97,22.6814,299.07,61,100,1.19,ZM,1709921159
18,lebu,-37.6167,-73.65,287.6,90,100,1.58,CL,1709921160
19,vilyuchinsk,52.9306,158.4028,264.3,82,90,5.31,RU,1709921161
20,ta`u,-14.2336,-169.5144,301.57,73,100,4.67,AS,1709921163
21,kodiak,57.79,-152.4072,273.88,75,0,4.12,US,1709921164
22,waitangi,-43.9535,-176.5597,286.94,77,34,2.68,NZ,1709921165
23,nuuk,64.1835,-51.7216,262.49,79,75,7.72,GL,1709921167
24,troitsko-pechorsk,62.7084,56.1964,256.31,99,96,2.68,RU,1709921168
25,hithadhoo,-0.6,73.0833,301.44,72,94,3.69,MV,1709921169
26,olonkinbyen,70.9221,-8.7187,274.0,93,99,6.16,SJ,1709921171
27,keflavik,64.0049,-22.5624,282.1,81,75,11.32,IS,1709921172
28,blackmans bay,-43.0167,147.3167,287.22,90,100,0.45,AU,1709921173
29,edinburgh of the seven seas,-37.0676,-12.3116,291.33,82,55,8.36,SH,1709921175
30,lihue,21.9789,-159.3672,294.46,77,75,9.77,US,1709921176
31,hammerfest,70.6634,23.6821,275.4,100,75,1.54,NO,1709921177
32,ushuaia,-54.8,-68.3,285.96,67,0,5.66,AR,1709921179
33,tiksi,71.6872,128.8694,241.19,100,47,1.38,RU,1709921180
34,yellowknife,62.456,-114.3525,257.82,75,20,1.54,CA,1709920922
35,tual,-5.6667,132.75,300.46,88,100,8.73,ID,1709921183
36,bodo,67.28,14.405,275.8,92,75,1.54,NO,1709921184
37,terrace,54.5163,-128.6035,275.1,93,100,1.03,CA,1709921051
38,tura,25.5198,90.2201,290.68,28,0,1.14,IN,1709921186
39,palanga,55.9175,21.0686,273.16,93,100,2.06,LT,1709921188
40,chulakkurgan,43.765,69.1814,281.95,59,84,3.07,KZ,1709921189
41,tazacorte,28.629,-17.9293,292.69,73,20,3.13,ES,1709921190
42,houlton,46.1262,-67.8403,274.38,55,0,3.6,US,1709920934
43,mili,6.0815,171.735,300.86,78,100,11.87,MH,1709921193
44,grytviken,-54.2811,-36.5092,279.68,73,67,5.11,GS,1709921195
45,port douglas,-16.4833,145.4667,299.72,88,100,6.35,AU,1709921196
46,uturoa,-16.7333,-151.4333,301.06,78,71,4.85,PF,1709921197
47,ribeira grande,38.5167,-28.7,289.69,59,40,11.32,PT,1709921199
48,carnarvon,-24.8667,113.6333,298.57,75,12,11.08,AU,1709921200
49,ujae,8.9322,165.7642,299.82,80,100,11.05,MH,1709921201
50,salat,37.84,40.8942,280.3,54,72,1.32,TR,1709921203
51,kwang binh,17.4833,106.6,293.36,88,97,2.74,VN,1709921204
52,bilibino,68.0546,166.4372,246.84,98,88,0.74,RU,1709921205
53,susuman,62.7833,148.1667,241.01,100,93,1.06,RU,1709921207
54,buala,-8.145,159.5921,299.91,86,56,2.11,SB,1709921208
55,whitehorse,60.7161,-135.0538,270.58,80,75,7.72,CA,1709921098
56,shihezi,44.3,86.0333,265.7,83,59,1.93,CN,1709921211
57,bo phloi,14.3236,99.5161,299.63,75,99,1.01,TH,1709921212
58,karwar,14.8,74.1333,297.75,76,18,2.6,IN,1709921213
59,alpena,45.0617,-83.4327,281.88,84,100,4.12,US,1709921215
60,axim,4.8699,-2.2405,301.24,81,67,4.69,GH,1709921216
61,bengkulu,-3.8004,102.2655,297.15,92,100,2.36,ID,1709921217
62,lauro de freitas,-12.8944,-38.3272,305.16,66,75,5.14,BR,1709921218
63,wrzesnia,52.3251,17.5652,278.46,60,0,3.49,PL,1709921220
64,daru,-9.0763,143.2092,299.77,89,100,2.27,PG,1709921221
65,georgetown,5.4112,100.3354,301.12,84,20,0.51,MY,1709921136
66,island harbour,50.724,-1.2758,282.77,78,100,3.13,GB,1709921224
67,qaqortoq,60.7167,-46.0333,269.93,90,97,4.15,GL,1709921225
68,blanchard,35.1378,-97.6581,284.01,87,100,8.61,US,1709921227
69,puerto ayora,-0.7393,-90.3518,303.13,89,39,4.02,EC,1709921228
70,el calafate,-50.3408,-72.2768,283.76,64,100,4.6,AR,1709921229
71,haiku-pauwela,20.9219,-156.3051,295.95,85,20,7.15,US,1709921231
72,todos santos,23.45,-110.2167,297.76,66,21,4.52,MX,1709921232
73,puerto baquerizo moreno,-0.9,-89.6,302.7,84,40,3.09,EC,1709921233
74,vorkuta,67.5,64.0,245.02,99,35,2.81,RU,1709921235
75,el granada,37.5027,-122.4694,290.08,61,0,1.54,US,1709921236
76,ancud,-41.8697,-73.8203,287.17,65,80,6.94,CL,1709921238
77,lata,40.1629,-8.3327,288.05,84,100,6.92,PT,1709921239
78,ola,59.5833,151.2833,255.8,82,100,3.24,RU,1709921241
79,arraial do cabo,-22.9661,-42.0278,301.13,78,40,6.17,BR,1709920971
80,piti village,13.4626,144.6933,300.64,76,40,3.6,GU,1709921243
81,mhamid,29.82,-5.72,296.58,15,0,4.22,MA,1709921245
82,college,64.8569,-147.8028,255.08,67,75,0.0,US,1709921246
83,margaret river,-33.95,115.0667,288.3,60,3,5.92,AU,1709920949
84,gore,-46.1028,168.9436,283.33,93,100,4.65,NZ,1709921249
85,iqaluit,63.7506,-68.5145,245.2,68,14,3.23,CA,1709921250
86,avarua,-21.2078,-159.775,299.18,94,20,2.57,CK,1709921252
87,kuusamo,65.9667,29.1833,270.17,63,100,2.06,FI,1709921263
88,xinzhou,38.4092,112.7333,274.08,30,0,0.32,CN,1709921264
89,bafq,31.6128,55.4107,291.86,31,98,6.9,IR,1709921266
90,thompson,55.7435,-97.8558,266.11,84,100,3.97,CA,1709921267
91,bichura,50.5881,107.6022,259.18,97,41,1.2,RU,1709921278
92,mana,5.6592,-53.7767,302.67,68,83,5.87,GF,1709921280
93,novodvinsk,64.4165,40.8122,263.01,95,49,2.08,RU,1709921281
94,at taj,24.2049,23.2857,297.85,13,0,5.75,LY,1709921283
95,touros,-5.1989,-35.4608,300.87,79,100,5.11,BR,1709921289
96,klyuchi,52.2667,79.1667,259.2,98,71,2.95,RU,1709921293
97,namtsy,62.7161,129.6658,244.81,100,100,0.8,RU,1709921294
98,mumford,5.2618,-0.759,301.04,84,17,6.66,GH,1709921295
99,brookings,44.3114,-96.7984,275.15,58,0,8.75,US,1709921192
100,utrik,11.2278,169.8474,299.45,78,100,11.15,MH,1709921293
101,mahilyow,53.9139,30.3364,272.28,84,6,3.24,BY,1709921299
102,kimry,56.8667,37.35,268.82,90,77,3.58,RU,1709921301
103,petropavlovsk-kamchatsky,53.0452,158.6483,261.36,91,96,7.6,RU,1709921302
104,road town,18.4167,-64.6167,302.17,70,75,4.12,VG,1709921303
105,port elizabeth,-33.918,25.5701,293.31,87,0,6.17,ZA,1709921005
106,weno,7.4515,151.8468,301.12,83,40,4.12,FM,1709921306
107,port blair,11.6667,92.75,297.87,72,57,2.26,IN,1709921307
108,brasilia de minas,-16.2064,-44.4333,303.06,51,31,2.03,BR,1709921057
109,albany,42.6001,-73.9662,284.22,46,34,0.89,US,1709920838
110,zhengzhou,34.7578,113.6486,279.57,33,100,2.63,CN,1709921312
111,hilo,19.7297,-155.09,296.08,97,100,2.06,US,1709921313
112,callao,-12.0667,-77.15,298.31,69,0,6.69,PE,1709921314
113,ilulissat,69.2167,-51.1,259.16,85,75,5.66,GL,1709921316
114,guarapari,-20.6667,-40.4975,301.98,78,41,2.96,BR,1709921317
115,udachny,66.4167,112.4,259.51,92,100,1.43,RU,1709921319
116,vorgashor,67.5833,63.95,245.31,99,35,2.99,RU,1709921297
117,selfoss,63.9331,-20.9971,278.17,71,78,5.7,IS,1709921321
118,itaituba,-4.2761,-55.9836,304.47,71,100,1.3,BR,1709921322
119,belyy yar,53.6039,91.3903,271.09,59,0,4.0,RU,1709921324
120,fort bragg,35.139,-79.006,292.54,57,0,4.12,US,1709921325
121,guamal,9.1433,-74.2238,310.83,36,42,0.99,CO,1709921326
122,makushino,55.2103,67.2442,259.65,97,99,3.78,RU,1709921328
123,kerikeri,-35.2268,173.9474,286.87,95,9,1.82,NZ,1709921329
124,walvis bay,-22.9575,14.5053,291.53,74,16,8.35,NA,1709921332
125,newman,37.3138,-121.0208,287.18,62,0,0.95,US,1709921333
126,arkhangel'sk,64.5401,40.5433,263.21,85,20,3.0,RU,1709921335
127,port mathurin,-19.6833,63.4167,299.3,84,100,8.6,MU,1709921336
128,wanganui,-39.9333,175.05,285.21,88,36,5.39,NZ,1709921337
129,sake,-1.5736,29.045,291.46,93,61,0.32,CD,1709921338
130,sinop,41.7711,34.8709,277.39,94,100,1.74,TR,1709921340
131,burutu,5.3509,5.5076,301.72,74,73,3.36,NG,1709921331
132,jamestown,42.097,-79.2353,290.92,42,0,5.66,US,1709921320
133,el alto,-4.2714,-81.2147,305.96,65,41,3.47,PE,1709921344
134,aasiaat,68.7098,-52.8699,257.28,91,100,3.54,GL,1709921345
135,gadzhiyevo,69.2551,33.3362,270.26,97,100,3.37,RU,1709921346
136,nova sintra,14.8667,-24.7167,292.89,70,19,9.12,CV,1709921326
137,selkirk,50.1436,-96.8845,265.46,90,97,1.98,CA,1709921349
138,son la,21.3167,103.9,288.66,83,77,1.86,VN,1709921350
139,hamilton,39.1834,-84.5333,286.62,93,100,3.09,US,1709920710
140,cole harbour,44.6724,-63.4751,274.8,86,100,7.6,CA,1709921353
141,phan rang-thap cham,11.5667,108.9833,296.63,82,97,2.7,VN,1709921354
142,nizhnyaya poyma,56.1622,97.1933,264.8,97,98,0.43,RU,1709921355
143,kourou,5.1552,-52.6478,305.18,68,99,5.17,GF,1709921357
144,kertih,4.5141,103.4483,297.93,84,100,0.69,MY,1709921358
145,narasannapeta,18.4167,84.05,298.64,81,16,1.61,IN,1709921359
146,bikenibeu village,1.3673,173.1241,301.13,89,100,3.09,KI,1709921363
147,ghadamis,30.1337,9.5007,295.1,21,35,2.36,LY,1709921364
148,slave lake,55.2834,-114.769,275.91,64,100,2.61,CA,1709921366
149,kapuskasing,49.4169,-82.4331,278.2,48,100,2.57,CA,1709921162
150,el obeid,13.1842,30.2167,299.0,7,69,4.47,SD,1709921369
151,nha trang,12.25,109.1833,299.15,86,98,2.51,VN,1709921370
152,penzance,50.1186,-5.5371,281.53,86,100,12.64,GB,1709921371
153,charlottetown,46.2352,-63.1267,273.02,89,100,10.73,CA,1709921205
154,tyukhtet,56.5389,89.3011,260.06,97,96,2.22,RU,1709921374
155,metahara,8.9,39.9167,299.17,58,62,1.35,ET,1709921375
156,dryden,49.7833,-92.7503,267.31,68,75,2.57,CA,1709921319
157,burang,30.25,81.1667,256.26,77,42,1.53,CN,1709921378
158,rossosh',51.1209,38.5116,270.98,89,81,3.08,RU,1709921380
159,trincomalee,8.5711,81.2335,300.03,71,89,3.26,LK,1709921381
160,nadi,-17.8,177.4167,298.15,88,75,0.0,FJ,1709921383
161,remire-montjoly,4.9167,-52.2667,305.17,62,40,7.72,GF,1709921384
162,abancay,-13.6339,-72.8814,295.01,64,99,2.71,PE,1709921180
163,najran,17.4924,44.1277,301.51,60,32,5.97,SA,1709921387
164,naze,28.3667,129.4833,285.19,65,92,7.75,JP,1709921388
165,sarkand,45.41,79.9186,272.2,73,93,3.42,KZ,1709921390
166,saldanha,-33.0117,17.9442,292.05,85,36,5.98,ZA,1709921391
167,serilingampalle,17.4931,78.302,299.49,22,1,2.08,IN,1709921115
168,portland,45.5234,-122.6762,282.22,72,20,3.58,US,1709920876
169,colonia,50.9333,6.95,283.13,50,0,4.12,DE,1709921397
170,papatowai,-46.5619,169.4708,283.71,68,92,8.45,NZ,1709921398
171,cannonvale,-20.2833,148.7,299.81,82,99,9.52,AU,1709921399
172,eyl,7.9803,49.8164,299.43,77,0,4.69,SO,1709921401
173,luderitz,-26.6481,15.1594,292.78,80,1,6.18,NA,1709921295
174,sari,36.5633,53.0601,282.84,89,99,1.5,IR,1709921404
175,nizhneangarsk,55.7833,109.55,262.6,93,100,0.45,RU,1709921405
176,hundested,55.9667,11.8667,274.72,85,0,4.22,DK,1709921406
177,sirte,31.2089,16.5887,289.15,58,96,7.82,LY,1709921408
178,westport,41.1415,-73.3579,286.57,48,0,5.14,US,1709921410
179,khanty-mansiysk,61.0042,69.0019,266.21,79,40,4.92,RU,1709921411
180,kupino,54.3663,77.2981,256.8,99,58,3.59,RU,1709921412
181,panama,9.0,-80.0,305.85,43,33,5.61,PA,1709920837
182,puerto aysen,-45.4,-72.7,281.52,99,100,2.35,CL,1709921196
183,egilsstadir,65.2653,-14.3948,279.1,70,40,4.63,IS,1709921416
184,alofi,-19.0595,-169.9187,297.09,94,99,1.03,NU,1709921418
185,afaahiti,-17.75,-149.2833,301.08,82,50,6.29,PF,1709921419
186,al ghayzah,16.2079,52.176,299.08,77,67,5.82,YE,1709921422
187,fuling,29.7022,107.3919,285.71,69,100,1.43,CN,1709921424
188,longyearbyen,78.2186,15.6401,274.06,80,75,4.12,SJ,1709921426
189,prabumulih,-3.45,104.25,297.27,98,100,1.24,ID,1709921428
190,saint-francois,46.4154,3.9054,282.84,68,75,9.26,FR,1709921440
191,motygino,58.1831,94.7592,254.14,100,96,0.89,RU,1709921452
192,ljubuski,43.1969,17.545,284.83,83,30,0.71,BA,1709921453
193,alice springs,-23.7,133.8833,297.16,60,100,2.57,AU,1709921454
194,enewetak,11.3474,162.3373,299.44,82,100,9.82,MH,1709921455
195,codrington,-38.2667,141.9667,290.28,43,0,3.89,AU,1709921457
196,anadyr,64.75,177.4833,250.43,77,20,3.0,RU,1709921458
197,wahpeton,46.2652,-96.6059,271.55,64,75,4.63,US,1709921460
198,taltal,-25.4,-70.4833,292.37,84,73,3.95,CL,1709921461
199,celestun,20.8667,-90.4,305.15,50,23,2.28,MX,1709921463
200,queen creek,33.2487,-111.6343,290.5,60,20,1.34,US,1709921464
201,san luis,-33.295,-66.3356,305.32,39,4,5.35,AR,1709921465
202,bocas del toro,9.3333,-82.25,302.07,74,84,2.52,PA,1709921467
203,shimoda,34.6667,138.95,277.65,67,0,11.77,JP,1709921468
204,holualoa,19.6228,-155.9522,295.8,78,20,2.06,US,1709921469
205,pisco,-13.7,-76.2167,301.18,57,0,8.23,PE,1709921471
206,mount gambier,-37.8333,140.7667,290.22,34,0,2.69,AU,1709921472
207,anqiu,36.4342,119.1925,273.41,51,0,2.42,CN,1709921473
208,beinamar,8.6698,15.3813,307.31,12,31,1.93,TD,1709921475
209,chernyshevskiy,63.0128,112.4714,264.18,94,100,4.01,RU,1709921476
210,pagouda,9.7525,1.3278,308.49,20,9,1.62,TG,1709921477
211,krasnogorskoye,52.2953,86.1979,261.36,98,87,1.08,RU,1709921479
212,nemuro,43.3236,145.575,270.83,80,100,8.12,JP,1709921323
213,ust-nera,64.5667,143.2,247.02,100,98,0.56,RU,1709921483
214,peniche,39.3558,-9.3811,287.75,90,100,13.61,PT,1709921484
215,qarazhal,48.0078,70.7903,271.39,93,99,3.49,KZ,1709921486
216,port lincoln,-34.7333,135.8667,302.2,30,46,4.51,AU,1709921487
217,korla,41.7597,86.1469,278.06,48,55,0.69,CN,1709921337
218,hermanus,-34.4187,19.2345,293.6,85,5,2.01,ZA,1709921489
219,salym,60.0625,71.4789,266.74,93,100,4.25,RU,1709921491
220,bella vista,36.4295,-94.2316,289.65,84,100,4.63,US,1709921361
221,zhaqsy,51.9083,67.3133,264.7,97,84,3.78,KZ,1709921493
222,nar'yan-mar,67.6713,53.087,252.1,100,83,2.68,RU,1709921495
223,nova vicosa,-17.8919,-39.3719,306.74,41,14,3.99,BR,1709921496
224,dolores,-36.3132,-57.6792,303.29,43,39,4.67,AR,1709921497
225,lubao,14.9167,120.55,296.28,85,22,2.58,PH,1709921498
226,villa regina,-39.1,-67.0667,303.7,15,26,4.02,AR,1709921500
227,zhijiang,30.4214,111.7533,282.82,56,87,1.21,CN,1709921501
228,meadow lake,34.8014,-106.5436,283.06,48,100,1.99,US,1709921503
229,gaogou,34.0175,119.1886,274.72,66,30,2.13,CN,1709921504
230,waitara,-38.925,174.25,288.42,82,20,4.69,NZ,1709921506
231,sisimiut,66.9395,-53.6735,256.59,93,97,4.56,GL,1709921507
232,manicore,-5.8092,-61.3003,306.47,52,82,2.7,BR,1709921509
233,kodinsk,58.6881,99.1844,261.17,100,86,1.11,RU,1709921510
234,chak azam sahu,30.75,73.0333,287.54,38,8,3.62,PK,1709921511
235,santarem,-2.4431,-54.7083,304.22,70,40,2.57,BR,1709921513
236,port macquarie,-31.4333,152.9167,291.42,71,74,1.33,AU,1709921514
237,petrovsk,52.3064,45.3917,267.39,96,99,3.58,RU,1709921515
238,kingston,17.997,-76.7936,304.91,66,20,9.77,JM,1709921516
239,vidra,44.2606,26.1697,280.55,72,100,0.94,RO,1709921518
240,hawaiian paradise park,19.5933,-154.9731,295.39,95,100,2.06,US,1709921519
241,inhambane,-23.865,35.3833,302.14,79,20,4.12,MZ,1709921520
242,hadibu,12.65,54.0333,299.11,77,36,3.4,YE,1709921362
243,zarichne,51.8126,26.129,274.62,64,5,2.1,UA,1709921523
244,gouyave,12.1646,-61.7296,300.43,75,2,7.36,GD,1709921524
245,america dourada,-11.4553,-41.4361,303.88,40,11,5.65,BR,1709921526
246,qamdo,31.1667,97.2333,268.57,43,57,2.59,CN,1709921527
247,satsuma,30.8532,-88.0561,295.54,82,100,4.97,US,1709921528
248,howard springs,-12.497,131.047,301.1,95,100,1.03,AU,1709921529
249,samalut,28.3121,30.7101,292.2,35,28,3.87,EG,1709921531
250,farah,32.5,62.5,286.75,45,69,2.45,AF,1709921532
251,san luis de la loma,17.2706,-100.8939,306.84,25,5,3.33,MX,1709921534
252,pollock pines,38.7613,-120.5866,283.57,46,0,2.57,US,1709921319
253,lospalos,-8.5186,127.0025,296.42,97,100,1.76,TL,1709921536
254,nizhniy odes,63.6445,54.856,256.32,96,100,3.13,RU,1709921538
255,vernon,50.2581,-119.2691,276.82,86,100,3.09,CA,1709921539
256,atherton,53.5237,-2.4935,280.23,72,30,2.24,GB,1709921540
257,shahrak,34.1074,64.3052,270.68,93,96,2.45,AF,1709921542
258,west island,-12.1568,96.8225,301.14,89,40,6.17,CC,1709921545
259,seven pagodas,12.6264,80.1722,302.09,78,31,3.15,IN,1709921546
260,mount isa,-20.7333,139.5,300.02,54,100,2.57,AU,1709921547
261,desna,50.9273,30.7605,275.85,62,6,2.69,UA,1709921549
262,talnakh,69.4865,88.3972,251.71,97,97,2.56,RU,1709921550
263,cabo san lucas,22.8909,-109.9124,299.6,40,0,2.06,MX,1709921551
264,semnan,35.5729,53.3971,284.14,44,87,1.74,IR,1709921553
265,olonets,60.9847,32.9698,267.67,89,26,2.87,RU,1709921554
266,punta arenas,-53.15,-70.9167,285.21,94,100,7.72,CL,1709921555
267,taoudenni,22.6783,-3.9836,304.45,7,32,2.53,ML,1709921557
268,boguchany,58.3814,97.4531,259.18,98,83,1.34,RU,1709921558
269,lorengau,-2.0226,147.2712,300.43,81,94,1.87,PG,1709921559
270,tahlequah,35.9154,-94.97,288.75,100,40,2.57,US,1709921388
271,oltinko'l,40.8011,72.1634,281.85,55,39,3.29,UZ,1709921562
272,san carlos de bariloche,-41.1456,-71.3082,282.9,70,57,8.82,AR,1709921563
273,iskateley,67.6803,53.1512,252.05,100,83,2.68,RU,1709921565
274,nordborg,55.0573,9.7408,275.32,93,75,4.63,DK,1709921566
275,harstad,68.799,16.5293,274.71,96,99,7.15,NO,1709921471
276,rumphi,-11.0186,33.8575,291.93,83,42,1.77,MW,1709921569
277,la ronge,55.1001,-105.2842,265.29,49,0,3.09,CA,1709921570
278,kaarina,60.4072,22.369,270.33,90,100,2.57,FI,1709921571
279,hedaru,-4.5,37.9,298.98,68,64,1.54,TZ,1709921573
280,stanley,54.868,-1.6985,277.92,74,75,6.69,GB,1709921298
281,east london,-33.0153,27.9116,293.67,83,0,2.57,ZA,1709921575
282,longjiang,47.3303,123.1836,264.43,60,0,2.42,CN,1709921577
283,sitka,57.0531,-135.33,279.09,70,100,9.77,US,1709921316
284,trinec,49.6776,18.6708,279.14,74,45,0.89,CZ,1709921579
285,odienne,9.51,-7.5692,309.77,25,80,0.81,CI,1709921580
286,atafu village,-8.5421,-172.5159,301.66,75,13,2.87,TK,1709921588
287,pitimbu,-7.4706,-34.8086,303.0,63,99,5.31,BR,1709921369
288,severnoye,56.3491,78.3619,260.92,91,85,5.36,RU,1709921595
289,nsunga,-1.1439,31.3947,293.75,75,85,0.24,TZ,1709921596
290,vizinga,61.0749,50.1031,262.17,94,100,3.25,RU,1709921598
291,benjamin constant,-4.3831,-70.0311,304.22,70,40,2.06,BR,1709921599
292,hovd,48.0056,91.6419,266.34,58,13,0.3,MN,1709921600
293,san juan,-31.5375,-68.5364,309.26,19,0,4.79,AR,1709921608
294,chardara,41.2547,67.9692,286.87,47,88,8.09,KZ,1709921611
295,laojunmiao,39.8333,97.7333,269.57,38,13,3.06,CN,1709921333
296,ponta delgada,37.7333,-25.6667,289.55,63,40,7.72,PT,1709921614
297,vilyuysk,63.7553,121.6247,252.04,100,95,2.68,RU,1709921616
298,isafjordur,66.0755,-23.124,279.17,65,75,4.12,IS,1709921617
299,zhongshu,24.5167,103.7667,282.08,92,53,1.78,CN,1709921618
300,puerto cabello,10.4731,-68.0125,299.89,90,22,4.22,VE,1709921620
301,medina,24.4686,39.6142,300.39,6,0,4.63,SA,1709921621
302,minas de marcona,-15.2119,-75.1103,296.6,61,54,6.73,PE,1709921342
303,cockburn town,21.4612,-71.1419,298.9,80,0,5.97,TC,1709921624
304,bubaque,11.2833,-15.8333,297.94,70,26,7.6,GW,1709921627
305,lannion,48.75,-3.4167,283.71,84,100,3.6,FR,1709921628
306,tomatlan,19.9333,-105.25,305.1,16,67,2.28,MX,1709921460
307,bamboo flat,11.7,92.7167,297.92,72,58,2.5,IN,1709921364
308,tralee,52.2704,-9.7026,281.29,71,75,10.29,IE,1709921632
309,taft,31.7471,54.2088,289.12,19,40,3.09,IR,1709921634
310,tazovsky,67.4667,78.7,241.05,100,39,2.36,RU,1709921635
311,porto novo,6.4965,2.6036,302.05,76,48,4.53,BJ,1709921636
312,labrador city,52.9463,-66.9114,265.1,53,0,1.54,CA,1709921638
313,safaga,26.7292,33.9365,293.91,46,1,3.8,EG,1709921639
314,nova olinda do norte,-3.8881,-59.0942,304.5,69,92,1.23,BR,1709921640
315,uwajima,33.2238,132.56,279.8,65,80,8.39,JP,1709921642
316,sao joao da barra,-21.6403,-41.0511,304.2,78,40,4.37,BR,1709921492
317,tianfu,37.1936,122.0511,271.67,55,0,2.12,CN,1709921645
318,khed,17.7167,73.3833,297.77,36,1,1.47,IN,1709921646
319,fisterra,42.9049,-9.2629,284.12,72,96,14.62,ES,1709921648
320,dunedin,-45.8742,170.5036,285.26,79,87,8.94,NZ,1709921368
321,howrah,22.5892,88.3103,295.15,60,0,0.0,IN,1709921650
322,nishinoomote,30.7333,131.0,285.13,57,93,12.97,JP,1709921652
323,gaalkacyo,6.7697,47.4308,300.15,59,14,9.27,SO,1709921653
324,airdrie,55.866,-3.9803,278.75,80,90,6.83,GB,1709921656
325,tegueste,28.5167,-16.3167,290.74,81,20,6.69,ES,1709921642
326,hampton bays,40.869,-72.5176,284.79,55,0,4.02,US,1709921659
327,chonchi,-42.6128,-73.8092,287.71,71,63,4.48,CL,1709921660
328,sandnessjoen,66.0217,12.6316,276.21,93,75,1.54,NO,1709921662
329,vila franca do campo,37.7167,-25.4333,289.38,67,91,7.75,PT,1709921663
330,mongoumba,3.6415,18.5936,297.15,86,97,3.0,CF,1709921664
331,miranda,3.2499,-76.2281,303.22,63,42,1.62,CO,1709921650
332,mareeba,-17.0,145.4333,297.28,90,100,1.38,AU,1709921667
333,stephenville,32.2207,-98.2023,295.33,67,40,6.17,US,1709921668
334,tanjung pandan,-2.75,107.65,298.97,90,100,6.26,ID,1709921669
335,hailey,43.5196,-114.3153,267.07,58,0,2.06,US,1709921536
336,prince rupert,54.3161,-130.3201,278.98,87,100,16.46,CA,1709921672
337,chake chake,-5.2459,39.7666,301.22,75,66,2.73,TZ,1709921673
338,melfort,52.8667,-104.6177,263.22,67,31,4.63,CA,1709921675
339,cadale,2.7603,46.3222,299.91,80,35,6.75,SO,1709921677
340,tombodu,8.1333,-10.6167,305.99,47,80,1.48,SL,1709921679
341,sterling,39.0062,-77.4286,288.95,60,75,2.57,US,1709921680
342,shanwei,22.782,115.3475,289.57,68,55,8.49,CN,1709921476
343,igarka,67.4667,86.5833,257.81,96,100,4.27,RU,1709921683
344,new norfolk,-42.7826,147.0587,287.87,99,95,1.37,AU,1709921684
345,widnes,53.3618,-2.7341,281.09,73,75,8.23,GB,1709921685
346,geraldton,-28.7667,114.6,293.38,73,100,8.23,AU,1709921686
347,cibitoke,-2.8833,29.25,291.58,87,74,2.01,BI,1709921688
348,kalaswala,32.2009,74.6491,289.13,54,7,3.02,PK,1709921690
349,midvagur,62.0511,-7.1939,278.61,81,75,8.75,FO,1709921692
350,ubatuba,-23.4339,-45.0711,299.09,92,84,4.16,BR,1709921693
351,nantucket,41.2835,-70.0995,280.23,75,100,12.35,US,1709921694
352,flying fish cove,-10.4217,105.6791,298.97,94,75,5.14,CX,1709921696
353,san antonio de pale,-1.4014,5.6325,302.18,74,38,0.96,GQ,1709921697
354,baruun-urt,46.6806,113.2792,253.81,98,45,1.06,MN,1709921698
355,quimili,-27.6333,-62.4167,310.43,38,29,5.12,AR,1709921699
356,talara,-4.5772,-81.2719,307.57,46,0,4.12,PE,1709921701
357,t'q'ibuli,42.3512,42.9987,275.66,94,98,0.16,GE,1709921702
358,strezhevoy,60.7333,77.5889,264.24,92,100,5.81,RU,1709921704
359,iwanai,42.9744,140.5089,267.68,79,36,1.73,JP,1709921705
360,tolanaro,-25.0319,46.9987,297.35,91,78,5.68,MG,1709921706
361,valparaiso,-33.0393,-71.6273,304.34,34,0,7.2,CL,1709921708
362,mahina,-17.5065,-149.489,302.02,74,20,1.03,PF,1709921454
363,kailua-kona,19.6406,-155.9956,297.32,78,20,2.06,US,1709921687
364,kolobrzeg,54.1757,15.5834,277.57,70,0,5.13,PL,1709921712
365,lompoc,34.6391,-120.4579,290.33,65,0,1.54,US,1709921713
366,coro,11.4045,-69.6734,304.51,65,25,10.11,VE,1709921714
367,arkalyk,50.2486,66.9114,265.71,91,100,3.5,KZ,1709921716
368,canacona,14.9959,74.0506,299.89,75,19,1.94,IN,1709921718
369,bonny,4.4522,7.1681,301.74,77,91,4.29,NG,1709921720
370,orkney,-26.9802,26.6727,297.92,14,1,3.21,ZA,1709921721
371,kuvshinovo,57.0295,34.1725,265.91,95,76,2.21,RU,1709921722
372,noumea,-22.2763,166.4572,299.82,99,100,5.22,NC,1709921526
373,palangkaraya,-2.2,113.8333,296.51,100,100,0.77,ID,1709921725
374,orneta,54.1148,20.1333,274.67,74,8,2.18,PL,1709921726
375,tweed heads,-28.1817,153.547,295.49,87,88,6.97,AU,1709921728
376,auki,-8.7676,160.7034,299.43,90,99,0.5,SB,1709921729
377,riosucio,5.4216,-75.7032,299.26,49,67,0.41,CO,1709921730
378,cambria,35.5641,-121.0808,291.05,65,0,0.89,US,1709921732
379,boende,-0.2167,20.8667,296.65,84,55,1.13,CD,1709921733
380,margate,51.3813,1.3862,281.98,75,13,2.24,GB,1709921735
381,lascano,-33.6667,-54.2,305.6,43,32,3.37,UY,1709921467
382,antalaha,-14.9003,50.2788,297.83,90,63,3.01,MG,1709921738
383,san andres,12.5847,-81.7006,304.16,66,20,3.6,CO,1709921739
384,nur-sultan,51.1801,71.446,260.12,92,100,2.0,KZ,1709921740
385,wolin,53.8421,14.6147,279.38,66,0,4.07,PL,1709921742
386,northam,51.0333,-4.2167,281.82,77,100,8.8,GB,1709921743
387,jeddah,21.5169,39.2192,297.07,50,0,4.12,SA,1709921631
388,severo-yeniseyskiy,60.3725,93.0408,249.38,100,94,2.09,RU,1709921746
389,boa vista,2.8197,-60.6733,308.14,41,40,6.17,BR,1709921600
390,preobrazheniye,42.9019,133.9064,268.66,81,98,4.01,RU,1709921748
391,penaflor,-33.6167,-70.9167,303.46,17,0,3.48,CL,1709921749
392,obock,12.25,43.0833,296.68,79,69,2.32,DJ,1709921751
393,kidal,18.4411,1.4078,303.87,7,55,4.81,ML,1709921753
394,international falls,48.6011,-93.411,268.23,68,100,1.54,US,1709921754
395,toyota,35.0833,137.15,277.81,73,16,6.55,JP,1709921757
396,conduaga,8.862,117.4893,297.91,86,80,2.3,PH,1709921760
397,gao,16.6362,1.637,305.74,8,29,4.75,ML,1709921761
398,mossel bay,-34.1831,22.146,294.11,81,21,1.03,ZA,1709921762
399,paita,-5.0892,-81.1144,301.4,62,64,4.88,PE,1709921764
400,zhuanghe,39.7008,122.9911,270.5,37,0,1.98,CN,1709921765
401,guiuan,11.0333,125.7247,299.88,79,100,9.25,PH,1709921776
402,schieder-schwalenberg,51.8771,9.1954,279.28,72,4,5.45,DE,1709921784
403,papao,-17.75,-149.55,301.97,82,55,6.96,PF,1709921785
404,zhanga buqtyrma,49.6295,83.5248,264.16,90,97,0.45,KZ,1709921787
405,st. john's,47.5649,-52.7093,272.12,97,100,13.89,CA,1709921693
406,boysun,38.2061,67.1986,280.25,64,99,3.9,UZ,1709921789
407,smithers,54.7804,-127.1743,274.33,100,100,2.06,CA,1709921713
408,fortuna,40.5982,-124.1573,285.89,80,0,0.89,US,1709921792
409,kavaratti,10.5669,72.642,301.33,67,15,5.81,IN,1709921794
410,aytos,42.7,27.25,278.83,89,100,1.78,BG,1709921795
411,peace river,56.2501,-117.286,274.32,86,75,4.63,CA,1709921797
412,saveh,35.0213,50.3566,285.96,36,100,2.99,IR,1709921798
413,azemmour,33.2895,-8.3425,289.02,58,43,7.7,MA,1709921799
414,poughkeepsie,41.7004,-73.921,286.62,45,0,1.54,US,1709921800
415,pacocha,-17.5833,-71.3333,297.23,69,0,5.66,PE,1709921664
416,mugia,43.1041,-9.2179,284.21,77,100,12.33,ES,1709921803
417,cruzeiro do sul,-29.5128,-51.9853,298.43,93,100,1.0,BR,1709921804
418,pauini,-7.7136,-66.9764,307.16,48,99,1.28,BR,1709921806
419,iranshahr,27.2025,60.6848,294.34,60,0,0.0,IR,1709921807
420,kone,-21.0595,164.8658,296.87,91,100,2.23,NC,1709921808
421,mount pearl,47.5166,-52.7813,271.66,97,100,13.89,CA,1709921810
422,bandipura,34.4167,74.65,275.42,69,12,3.73,IN,1709921811
423,tambopata,-12.7333,-69.1833,307.09,66,40,2.57,PE,1709921812
424,kuraymah,18.55,31.85,301.24,8,9,4.14,SD,1709921813
425,constantia,44.1833,28.65,277.53,73,54,3.13,RO,1709921815
426,veraval,20.9,70.3667,297.5,44,11,4.49,IN,1709921816
427,kujama,10.4542,7.6368,305.29,26,81,2.21,NG,1709921817
428,kununurra,-15.7667,128.7333,298.14,94,100,2.06,AU,1709921819
429,astrakhan,46.3497,48.0408,270.08,74,0,5.0,RU,1709921820
430,villa gesell,-37.2639,-56.973,300.4,57,64,7.56,AR,1709921821
431,dzhangala,49.2167,50.3333,270.33,73,9,2.54,KZ,1709921823
432,ceerigaabo,10.6162,47.368,295.86,51,96,2.41,SO,1709921824
433,kismayo,-0.3582,42.5454,301.77,79,100,4.68,SO,1709921826
434,manzanares,38.9991,-3.3699,282.9,68,95,9.01,ES,1709921827
435,taroa,8.7058,171.2275,299.81,79,100,11.54,MH,1709921830
436,isaccea,45.2667,28.4667,278.42,47,81,1.9,RO,1709921831
437,new plymouth,-39.0667,174.0833,288.04,80,22,5.21,NZ,1709921833
438,rivesaltes,42.7695,2.8724,288.25,44,0,5.66,FR,1709921834
439,canavieiras,-15.675,-38.9472,303.33,56,22,3.46,BR,1709921835
440,puerto el triunfo,13.2833,-88.55,308.63,59,1,5.08,SV,1709921837
441,tabou,4.423,-7.3528,301.21,80,100,3.8,CI,1709921838
442,anloga,5.7947,0.8973,301.5,81,33,6.91,GH,1709921839
443,chadron,42.8294,-102.9999,273.01,82,0,4.12,US,1709921841
444,ruteng,-8.6136,120.4721,291.34,93,100,0.93,ID,1709921842
445,comendador,18.8775,-71.7028,307.41,30,5,0.55,DO,1709921753
446,farafangana,-22.8167,47.8333,298.78,81,99,4.04,MG,1709921845
447,orchard homes,46.8633,-114.0484,275.33,54,0,2.06,US,1709921846
448,dhidhdhoo,6.8833,73.1,301.19,70,43,1.86,MV,1709921848
449,al kut,32.5147,45.819,292.12,37,35,3.98,IQ,1709921849
450,ghardaia,32.4909,3.6735,294.61,14,94,4.19,DZ,1709921851
451,tak bai,6.2595,102.0546,300.14,85,100,2.23,TH,1709921852
452,luba,3.4568,8.5547,301.25,80,75,1.18,GQ,1709921854
453,tucuma,-0.1833,-50.05,300.11,86,99,3.37,BR,1709921855
454,barra de santo antonio,-9.4047,-35.5072,305.75,68,20,3.94,BR,1709921856
455,hasaki,35.7333,140.8333,274.42,67,64,4.9,JP,1709921858
456,pathein,16.7833,94.7333,295.16,82,55,2.75,MM,1709921860
457,rakvere,59.3464,26.3558,271.51,76,89,2.81,EE,1709921861
458,fuli,46.7217,131.1394,257.72,94,90,2.38,CN,1709921862
459,phang nga,8.4509,98.5298,300.17,91,100,0.77,TH,1709921864
460,tuba city,36.135,-111.2399,283.36,45,61,1.34,US,1709921865
461,bikin,46.8161,134.26,254.62,100,97,0.64,RU,1709921866
462,gamba,-2.65,10.0,300.12,86,86,2.6,GA,1709921868
463,cherrapunji,25.3,91.7,283.59,32,0,2.61,IN,1709921869
464,al faw,29.9776,48.4741,291.15,33,58,2.91,IQ,1709921870
465,san patricio,28.017,-97.5169,301.57,62,100,6.15,US,1709921872
466,okhotsk,59.3833,143.3,251.19,99,68,2.95,RU,1709921873
467,kuala terengganu,5.3302,103.1408,299.12,89,20,1.54,MY,1709921875
468,ciudad rio bravo,25.9833,-98.1,302.62,57,100,6.17,MX,1709921876
469,amga,60.8953,131.9608,250.53,100,100,0.51,RU,1709921878
470,kashgar,39.4547,75.9797,279.71,31,0,4.0,CN,1709921694
471,sinjai,-5.1241,120.253,297.91,88,92,1.67,ID,1709921881
472,anupgarh,29.1911,73.2086,291.29,22,1,3.39,IN,1709921883
473,kushiro,42.975,144.3747,268.68,93,100,4.12,JP,1709921884
474,hirara,24.8,125.2833,289.07,62,100,5.66,JP,1709921886
475,kebili,33.7044,8.969,295.13,22,0,2.57,TN,1709921887
476,chifeng,42.2683,118.9636,268.32,41,0,1.25,CN,1709921889
477,zambezi,-13.5432,23.1047,295.85,77,82,2.04,ZM,1709921890
478,vanino,49.0869,140.2543,255.89,97,24,2.08,RU,1709921892
479,caransebes,45.4167,22.2167,281.59,86,61,0.58,RO,1709921893
480,hotan,37.0997,79.9269,280.69,34,100,2.82,CN,1709921894
481,san lawrenz,36.0553,14.204,287.82,81,97,7.64,MT,1709921896
482,polyarnyy,69.1989,33.4478,270.52,97,100,3.36,RU,1709921698
483,lyantor,61.6195,72.1555,265.61,95,100,5.85,RU,1709921899
484,ha'il,27.5219,41.6907,291.16,29,0,3.09,SA,1709921900
485,coronel dorrego,-38.7187,-61.2873,305.26,32,73,2.81,AR,1709921902
486,tiflet,33.8947,-6.3065,287.48,64,58,5.59,MA,1709921903
487,yeed,4.55,43.0333,306.77,26,49,4.56,SO,1709921905
488,gushu,31.5598,118.4829,275.14,65,75,2.05,CN,1709921907
489,talcahuano,-36.7167,-73.1167,287.97,94,100,4.63,CL,1709921908
490,altay,47.8667,88.1167,264.28,73,27,3.24,CN,1709921910
491,corumba,-19.0092,-57.6533,308.99,49,40,4.63,BR,1709921675
492,podgornoye,51.735,39.1496,273.27,69,0,4.0,RU,1709921666
493,novaya mayna,54.15,49.75,268.31,97,99,3.17,RU,1709921914
494,caconda,-13.7333,15.0667,291.9,88,96,1.32,AO,1709921916
495,alesund,62.4723,6.1549,277.22,78,0,5.66,NO,1709921869
496,rongelap,11.1635,166.8941,299.54,81,97,10.75,MH,1709921918
497,suntar,62.1444,117.6319,265.6,97,100,0.36,RU,1709921920
498,labytnangi,66.6572,66.4183,252.21,95,89,2.91,RU,1709921921
499,diawara,15.022,-12.5437,310.92,10,99,2.63,SN,1709921923
500,tsiombe,-25.3,45.4833,298.17,90,93,1.14,MG,1709921924
501,russkaya polyana,49.417,31.9201,274.55,59,5,1.59,UA,1709921926
502,debre birhan,9.6833,39.5333,286.9,76,95,1.46,ET,1709921927
503,quellon,-43.1167,-73.6167,285.92,75,80,6.25,CL,1709921929
504,yelizovo,53.1873,158.3805,262.23,56,40,2.0,RU,1709921930
505,xiazhuang,34.9161,118.6389,274.24,52,7,2.05,CN,1709921932
506,egersund,58.4513,5.9997,276.14,86,5,1.39,NO,1709921933
507,brigantine,39.4101,-74.3646,285.48,64,0,7.6,US,1709921698
508,buka,40.8108,69.1986,285.35,45,89,3.38,UZ,1709921936
509,anna regina,7.2644,-58.5077,302.17,72,70,4.92,GY,1709921938
510,staryye ozinki,51.1786,49.6769,264.73,94,100,3.54,RU,1709921939
511,palikir - national government center,6.9248,158.1611,300.36,80,100,9.5,FM,1709921941
512,cam ranh,11.9214,109.1591,299.13,73,40,3.6,VN,1709921943
513,tobol'sk,58.2,68.2667,267.93,90,100,5.81,RU,1709921945
514,sao jose da coroa grande,-8.8978,-35.1478,303.17,67,53,4.27,BR,1709921946
515,port alfred,-33.5906,26.891,293.25,90,3,0.89,ZA,1709921948
516,rio grande,-32.035,-52.0986,300.21,68,81,7.43,BR,1709921949
517,christchurch,-43.5333,172.6333,284.79,86,19,3.6,NZ,1709921791
518,south valley,35.0101,-106.6781,284.68,57,75,2.06,US,1709921952
519,ventspils,57.3894,21.5606,272.11,93,100,1.54,LV,1709921954
520,thabazimbi,-24.5917,27.4116,301.56,33,46,3.39,ZA,1709921956
521,revda,56.801,59.9303,265.56,93,100,3.09,RU,1709921957
522,ghat,24.9647,10.1728,298.58,11,0,3.1,LY,1709921960
523,taguatinga,-12.3857,-46.5711,305.17,52,29,2.05,BR,1709921961
524,la mira,18.035,-102.3266,300.96,57,21,3.93,MX,1709921963
525,san julian,21.0167,-102.1667,297.14,10,100,6.71,MX,1709921964
526,pastavy,55.1168,26.8326,273.03,74,2,2.53,BY,1709921965
527,yangambi,0.8102,24.4336,297.96,83,92,0.9,CD,1709921967
528,copala,16.65,-98.9833,304.33,38,0,3.65,MX,1709921968
529,mogocha,53.7333,119.7667,253.47,100,49,1.33,RU,1709921970
530,wenxing,28.6667,112.8833,284.78,79,100,0.38,CN,1709921971
531,la'ie,21.6477,-157.9253,297.13,69,98,4.02,US,1709921882
532,arteche,12.2645,125.4048,298.92,73,52,4.57,PH,1709921974
533,west bay,19.3667,-81.4167,304.19,58,20,6.69,KY,1709921858
534,dolinsk,47.35,142.8,267.44,96,100,1.33,RU,1709921976
535,mersa matruh,31.3525,27.2453,289.51,71,88,4.73,EG,1709921978
536,dossor,47.5272,52.9811,271.95,54,84,3.08,KZ,1709921979
537,coxen hole,16.3244,-86.5366,301.75,70,0,5.66,HN,1709921980
538,abra pampa,-22.7205,-65.697,293.36,28,66,1.19,AR,1709921982
539,namibe,-15.1961,12.1522,297.35,74,15,3.9,AO,1709921983
540,katabu,-4.9333,122.5167,298.17,96,100,2.2,ID,1709921984
541,lepsy,46.235,78.9456,270.08,85,65,2.37,KZ,1709921986
542,bogale,16.2833,95.4,296.64,62,43,2.97,MM,1709921987
543,mahriz,31.5917,54.4318,289.43,33,100,5.73,IR,1709921988
544,kurnool,15.8309,78.0425,302.22,46,18,4.71,IN,1709921990
545,myrina,39.8797,25.0742,281.73,76,20,3.09,GR,1709921991
546,anori,-3.7728,-61.6442,303.39,69,99,1.5,BR,1709921992
547,jishu,44.3167,126.8,258.68,93,5,2.13,CN,1709921994
548,aral,40.5156,81.2636,280.56,32,26,3.42,CN,1709921995
549,colchani,-20.3,-66.9333,290.74,35,100,4.34,BO,1709921996
550,raduzhnyy,62.0961,77.475,264.39,94,100,4.45,RU,1709921998
551,jianshui,23.6363,102.8264,285.83,90,1,1.59,CN,1709921999
552,nogliki,51.8333,143.1667,255.01,99,77,2.24,RU,1709922000
553,tangalle,6.024,80.7911,298.38,78,20,2.41,LK,1709922002
554,banovici,44.4053,18.5242,279.4,87,75,2.57,BA,1709922004
555,mariehamn,60.0973,19.9348,270.27,93,100,2.57,AX,1709922005
556,emerald,-23.5333,148.1667,293.9,81,100,4.37,AU,1709922007
557,suva,-18.1416,178.4415,298.86,89,40,1.03,FJ,1709922008
558,karoi,-16.8099,29.6925,293.83,87,87,2.08,ZW,1709922009
559,chamical,-30.36,-66.314,306.93,43,11,4.98,AR,1709922011
560,canutama,-6.5339,-64.3831,301.83,87,100,1.37,BR,1709922012
561,saipan,15.1355,145.701,298.54,78,20,3.09,MP,1709922014
562,khandyga,62.6667,135.6,240.25,100,92,1.22,RU,1709922015
563,taybad,34.74,60.7756,287.93,48,100,6.45,IR,1709922016
564,miyako,39.6367,141.9525,273.81,93,100,4.52,JP,1709922018
565,shingu,33.7333,135.9833,276.25,73,2,2.51,JP,1709922019
566,huarmey,-10.0681,-78.1522,296.52,84,53,6.37,PE,1709922020
567,pechora,65.1472,57.2244,251.4,99,98,3.33,RU,1709922022
568,'ali al gharbi,32.4633,46.6864,291.63,38,21,4.44,IQ,1709922023
569,lipnik nad becvou,49.5272,17.5859,279.57,77,87,0.63,CZ,1709922025
570,diego de almagro,-26.3667,-70.05,303.52,21,17,5.52,CL,1709922026
571,mathba,22.2855,89.9629,293.98,23,0,1.04,BD,1709922027
572,garagoa,5.0824,-73.3633,296.72,65,87,2.84,CO,1709922030
573,kirkwall,58.9848,-2.9587,278.18,75,75,6.69,GB,1709922032
574,bandarbeyla,9.4942,50.8122,299.68,75,19,3.72,SO,1709922033
575,picture rocks,32.3459,-111.2462,288.87,64,97,2.06,US,1709922034
576,yuzhno-kurilsk,44.0306,145.8556,269.47,59,100,0.59,RU,1709922036
577,lekeitio,43.3666,-2.5007,287.93,67,89,1.31,ES,1709922037
578,conde,-7.2597,-34.9075,303.85,62,20,6.69,BR,1709922038
579,guerrero negro,27.9769,-114.0611,290.42,57,12,7.07,MX,1709922040
580,linjiang,41.8069,126.9078,260.3,89,10,0.22,CN,1709922042
581,rimouski,48.4488,-68.524,272.25,72,98,6.46,CA,1709922044
582,saguenay,48.4168,-71.0657,276.61,45,20,3.09,CA,1709922045
583,sao joao da madeira,40.9023,-8.4897,283.84,93,40,8.23,PT,1709922047
584,kirensk,57.7853,108.1119,268.13,94,100,1.79,RU,1709922048
585,dubove,48.1721,23.8895,277.94,79,93,0.33,UA,1709922049
586,summerside,46.3959,-63.7876,272.97,86,100,10.8,CA,1709922051
587,kapa'a,22.0752,-159.319,295.43,76,75,9.77,US,1709922052
588,saint albans,51.75,-0.3333,279.9,80,100,5.66,GB,1709922054
589,chester,40.1254,-75.8749,286.39,54,0,2.06,US,1709922055
590,mournies,35.4764,24.0092,285.83,76,20,0.0,GR,1709922056
591,natal,-5.795,-35.2094,303.27,74,75,5.66,BR,1709922057
592,rzhev,56.2624,34.3282,269.99,95,83,2.54,RU,1709922059
593,i-n-salah,27.1935,2.4607,298.25,11,0,3.49,DZ,1709922060
594,vila velha,-20.3297,-40.2925,302.12,84,75,5.66,BR,1709922063
595,samsat,37.5819,38.4742,284.73,49,99,1.6,TR,1709922066
596,shatsk,54.0258,41.7119,267.96,97,94,3.71,RU,1709922067
597,praia da vitoria,38.7333,-27.0667,289.13,77,75,11.48,PT,1709922078
598,tonj,7.2737,28.6822,305.08,12,74,0.81,SS,1709922080
599,bartica,6.4,-58.6167,306.33,58,95,3.3,GY,1709922081
600,zaragoza,41.6561,-0.8773,287.6,36,20,5.14,ES,1709922009
601,robore,-18.3333,-59.75,308.2,49,40,7.72,BO,1709922089
602,oamaru,-45.0784,170.9801,284.18,67,35,4.15,NZ,1709922092
603,barentu,15.1139,37.5928,298.31,20,70,4.38,ER,1709922094
604,san fernando de apure,7.8878,-67.4724,311.54,31,57,4.27,VE,1709922096
605,tuntum,-5.2581,-44.6489,301.41,90,81,2.18,BR,1709922097
606,saudarkrokur,65.7461,-19.6394,274.17,84,86,2.46,IS,1709922099
607,nizhnesortymskiy,62.4397,71.7603,264.46,95,100,4.55,RU,1709922100
608,sorso,40.8,8.5772,285.42,93,100,3.53,IT,1709922102
609,glace bay,46.1969,-59.957,273.03,88,100,11.32,CA,1709922103
610,nizhnevartovsk,60.9344,76.5531,264.16,92,100,5.0,RU,1709922105
611,huayin,34.5675,110.0921,279.94,41,100,3.69,CN,1709922106
612,taksimo,56.3444,114.8794,258.95,91,99,0.7,RU,1709922107
613,tarawa,1.419,172.984,301.2,89,100,3.09,KI,1709922109
614,ngaoundere,7.3167,13.5833,299.93,28,80,0.5,CM,1709922110
615,diffa,13.3154,12.6113,308.42,12,73,1.51,NE,1709922111
616,dayr hafir,36.1569,37.7078,284.95,73,96,5.02,SY,1709922113
617,mirny,62.5353,113.9611,263.28,85,100,0.89,RU,1709922114
618,coahuayana de hidalgo,18.7,-103.6583,303.35,35,45,2.98,MX,1709922115
619,vadso,70.0744,29.7487,273.24,93,75,7.2,NO,1709922117
620,shakawe,-18.3667,21.85,294.38,90,95,6.33,BW,1709921876
621,mission,26.2159,-98.3253,302.58,62,0,6.69,US,1709922119
622,dudinka,69.4058,86.1778,253.53,99,98,2.24,RU,1709922120
