City_ID,City,Lat,Lng,Max Temp,Humidity,Cloudiness,Wind Speed,Country,Date
0,saint-philippe,-21.3585,55.7679,25.77,82,52,4.34,RE,1710296680
1,waitangi,-43.9535,-176.5597,16.01,80,100,3.58,NZ,1710296681
2,nemuro,43.3236,145.575,-3.44,74,100,18.05,JP,1710296681
3,kourou,5.1552,-52.6478,28.03,89,100,4.01,GF,1710296682
4,albany,42.6001,-73.9662,8.23,56,1,2.28,US,1710296004
5,loango,-4.6719,11.8312,26.86,91,100,0.6,CG,1710296683
6,port-aux-francais,-49.35,70.2167,5.23,68,23,15.19,TF,1710296684
7,invercargill,-46.4,168.35,12.79,75,72,4.47,NZ,1710296684
8,adamstown,-25.066,-130.1015,25.87,76,91,3.17,PN,1710296685
9,new norfolk,-42.7826,147.0587,20.4,35,1,0.61,AU,1710296686
10,grytviken,-54.2811,-36.5092,3.95,77,24,3.75,GS,1710296687
11,hernando,28.5419,-82.4582,19.47,91,0,0.0,US,1710296687
12,margaret river,-33.95,115.0667,20.58,69,69,4.56,AU,1710296672
13,zhanaozen,43.3,52.8,-2.41,66,1,2.92,KZ,1710296688
14,ialibu,-6.2821,143.9935,21.44,72,95,1.69,PG,1710296689
15,bredasdorp,-34.5322,20.0403,16.5,85,2,1.48,ZA,1710296690
16,zheleznogorsk-ilimskiy,56.5768,104.1217,-9.24,94,100,1.34,RU,1710296690
17,singkawang,0.9,109.0,27.94,73,100,2.94,ID,1710296687
18,tajerouine,35.8917,8.5528,5.2,87,0,1.25,TN,1710296691
19,mhamid,29.82,-5.72,18.07,27,43,3.06,MA,1710296692
20,date,42.4681,140.8681,0.04,46,3,8.0,JP,1710296692
21,bethel,41.3712,-73.414,10.17,56,0,0.0,US,1710296693
22,lazaro cardenas,17.9583,-102.2,24.38,79,71,3.43,MX,1710296694
23,ilulissat,69.2167,-51.1,-9.99,92,75,0.51,GL,1710296694
24,dreux,48.6667,1.25,9.99,98,79,4.56,FR,1710296695
25,kaiapoi,-43.3783,172.6401,17.19,42,100,4.63,NZ,1710296696
26,enewetak,11.3474,162.3373,26.69,79,100,9.89,MH,1710296696
27,yelizovo,53.1873,158.3805,-2.92,39,0,4.02,RU,1710296453
28,east london,-33.0153,27.9116,21.3,91,96,3.65,ZA,1710296697
29,molde,62.7375,7.1591,2.1,80,100,1.03,NO,1710296698
30,blackmans bay,-43.0167,147.3167,19.74,56,12,0.45,AU,1710296698
31,yellowknife,62.456,-114.3525,-10.88,92,75,4.12,CA,1710296699
32,longyearbyen,78.2186,15.6401,-10.09,73,100,6.17,SJ,1710296570
33,badger,64.8,-147.5333,-12.02,52,75,3.6,US,1710296701
34,isafjordur,66.0755,-23.124,1.69,93,100,4.73,IS,1710296701
35,manghit,42.1156,60.0597,-2.01,44,18,1.61,UZ,1710296702
36,papatowai,-46.5619,169.4708,13.24,53,80,6.39,NZ,1710296703
37,florenville,49.6998,5.3074,9.66,98,100,4.44,BE,1710296703
38,tiksi,71.6872,128.8694,-16.45,94,100,2.17,RU,1710296704
39,narimanov,46.6927,47.8498,-6.05,68,0,1.71,RU,1710296705
40,eusebio ayala,-25.4,-56.9667,31.27,50,6,2.1,PY,1710296706
41,port mathurin,-19.6833,63.4167,26.52,80,87,9.53,MU,1710296706
42,talnakh,69.4865,88.3972,-19.89,98,100,7.85,RU,1710296707
43,hamilton,39.1834,-84.5333,14.46,45,0,2.57,US,1710296605
44,geraldton,-28.7667,114.6,34.23,38,0,6.69,AU,1710296708
45,lufilufi,-13.8745,-171.5986,29.51,75,29,4.47,WS,1710296709
46,papao,-17.75,-149.55,30.82,75,100,5.4,PF,1710296709
47,udachny,66.4167,112.4,-26.33,92,38,0.77,RU,1710296662
48,saurimo,-9.6608,20.3916,17.35,93,99,1.21,AO,1710296711
49,georgetown,5.4112,100.3354,30.96,63,20,4.12,MY,1710296696
50,adam,22.3756,57.5233,20.12,39,8,1.35,OM,1710296712
51,ushuaia,-54.8,-68.3,11.81,47,20,9.26,AR,1710296443
52,olonkinbyen,70.9221,-8.7187,-1.08,94,99,3.2,SJ,1710296713
53,bilibino,68.0546,166.4372,-17.82,85,25,0.81,RU,1710296713
54,hermanus,-34.4187,19.2345,17.11,81,26,2.36,ZA,1710296714
55,st. john's,47.5649,-52.7093,0.64,97,40,1.03,CA,1710296715
56,labytnangi,66.6572,66.4183,-11.28,91,100,6.86,RU,1710296715
57,sitka,57.0531,-135.33,2.94,70,75,4.63,US,1710296716
58,egilsstadir,65.2653,-14.3948,1.2,99,100,3.87,IS,1710296716
59,hasaki,35.7333,140.8333,12.22,40,15,9.73,JP,1710296717
60,kingston,17.997,-76.7936,27.53,82,20,2.57,JM,1710296456
61,anacapri,40.5558,14.2136,11.19,71,21,1.12,IT,1710296718
62,fort bragg,35.139,-79.006,16.01,52,0,0.0,US,1710296718
63,west island,-12.1568,96.8225,27.99,74,40,5.66,CC,1710296719
64,ta`u,-14.2336,-169.5144,29.14,77,54,5.06,AS,1710296720
65,cannonvale,-20.2833,148.7,26.66,68,99,6.62,AU,1710296721
66,remire-montjoly,4.9167,-52.2667,28.02,83,100,5.14,GF,1710296721
67,nayoro,44.3506,142.4578,-3.82,64,89,5.1,JP,1710296722
68,port alfred,-33.5906,26.891,19.54,92,78,0.45,ZA,1710296723
69,tazovsky,67.4667,78.7,-18.0,85,100,11.2,RU,1710296723
70,thompson,55.7435,-97.8558,-6.91,93,100,2.57,CA,1710296534
71,ain bessem,36.2933,3.6732,7.36,74,0,1.75,DZ,1710296724
72,san jeronimo de juarez,17.1333,-100.4667,25.03,77,4,2.18,MX,1710296725
73,carloforte,39.145,8.3058,13.2,75,65,8.5,IT,1710296725
74,whangarei,-35.7317,174.3239,23.54,62,100,3.48,NZ,1710296726
75,howrah,22.5892,88.3103,25.0,88,40,2.57,IN,1710296727
76,kribi,2.95,9.9167,27.81,88,69,3.43,CM,1710296727
77,petropavlovsk-kamchatsky,53.0452,158.6483,-3.67,72,0,5.36,RU,1710296675
78,nieuw amsterdam,5.8833,-55.0833,26.09,81,93,4.79,SR,1710296728
79,fruita,39.1589,-108.729,10.32,45,100,2.68,US,1710296729
80,bundaberg north,-24.8551,152.3425,29.56,69,75,2.24,AU,1710296730
81,kindu,-2.95,25.95,21.82,99,97,1.33,CD,1710296730
82,djibo,14.1022,-1.6306,27.82,15,56,4.63,BF,1710296731
83,albertina,-22.2008,-46.6158,19.75,80,6,1.99,BR,1710296731
84,carnarvon,-24.8667,113.6333,30.75,58,0,2.83,AU,1710296671
85,bam,29.106,58.357,10.11,49,0,2.23,IR,1710296733
86,arrifes,37.7667,-25.7,17.18,88,20,6.69,PT,1710296733
87,abepura,-2.6333,140.5833,27.45,83,20,1.54,ID,1710296734
88,msowero,-6.5333,37.2,22.55,96,96,0.76,TZ,1710296734
89,puerto natales,-51.7236,-72.4875,6.65,81,30,5.35,CL,1710296735
90,kinablangan,7.6947,126.5503,26.82,82,78,5.17,PH,1710296735
91,oberstdorf,47.4,10.2833,3.58,93,100,1.34,DE,1710296736
92,pandan,14.0453,124.1694,27.76,68,65,4.52,PH,1710296737
93,toliara,-23.35,43.6667,26.85,75,100,1.88,MG,1710296737
94,aral,40.5156,81.2636,7.93,29,89,2.13,CN,1710296738
95,pauls valley,34.7401,-97.2223,19.42,72,0,3.09,US,1710296739
96,port lincoln,-34.7333,135.8667,21.48,74,100,3.63,AU,1710296739
97,mossel bay,-34.1831,22.146,15.96,83,34,1.94,ZA,1710296740
98,iqaluit,63.7506,-68.5145,-24.06,76,0,1.54,CA,1710296740
99,antofagasta,-23.65,-70.4,18.6,81,63,1.88,CL,1710296356
100,puerto deseado,-47.7503,-65.8938,17.36,30,82,10.75,AR,1710296741
101,lacombe,52.4668,-113.7353,3.3,99,21,1.77,CA,1710296742
102,vilyuchinsk,52.9306,158.4028,-2.85,57,8,2.19,RU,1710296743
103,dwarka,22.2394,68.9678,22.27,74,54,5.66,IN,1710296743
104,puerto ayora,-0.7393,-90.3518,24.75,100,47,0.89,EC,1710296744
105,cabo san lucas,22.8909,-109.9124,25.17,38,0,1.54,MX,1710296574
106,aasiaat,68.7098,-52.8699,-17.77,100,99,1.12,GL,1710296454
107,tsiombe,-25.3,45.4833,24.54,77,80,2.28,MG,1710296745
108,ankang,32.68,109.0172,10.91,77,100,0.65,CN,1710296746
109,floro,61.5996,5.0328,5.04,81,100,4.12,NO,1710296746
110,tremonton,41.7119,-112.1655,4.81,85,100,6.69,US,1710296747
111,kaa-khem,51.6833,94.7333,-10.33,92,100,0.89,RU,1710296748
112,stanley,54.868,-1.6985,10.71,86,40,8.75,GB,1710296602
113,pemalang,-6.9,109.3667,27.14,87,99,6.42,ID,1710296749
114,daur,26.4583,68.3192,18.83,66,0,2.89,PK,1710296750
115,sironj,24.1,77.7,21.84,34,0,1.72,IN,1710296750
116,kirensk,57.7853,108.1119,-7.52,93,100,2.33,RU,1710296751
117,uusikaupunki,60.8004,21.4084,-3.86,94,40,1.98,FI,1710296751
118,nizhnyaya salda,58.0776,60.7202,-19.88,100,97,2.27,RU,1710296753
119,gaspe,48.8334,-64.4819,2.12,75,100,4.63,CA,1710296753
120,plastun,44.7561,136.2939,0.7,26,6,2.05,RU,1710296754
121,koundara,12.4833,-13.3,27.02,38,58,2.87,GN,1710296755
122,sisimiut,66.9395,-53.6735,-11.73,95,100,3.59,GL,1710296756
123,hola,51.5377,23.1902,3.1,98,100,2.75,PL,1710296756
124,bayanhongor,46.7167,100.1167,-12.36,78,100,1.07,MN,1710296757
125,faya-largeau,17.9257,19.1043,24.82,13,69,5.29,TD,1710296757
126,college,64.8569,-147.8028,-11.97,48,75,3.6,US,1710296736
127,san antonio de pale,-1.4014,5.6325,28.59,81,100,3.56,GQ,1710296758
128,moldava nad bodvou,48.6143,20.9996,9.34,91,75,2.57,SK,1710296759
129,dabakala,8.3667,-4.4333,26.28,74,100,3.06,CI,1710296760
130,manta,-0.95,-80.7333,26.88,75,40,4.92,EC,1710296760
131,isla del bosque,22.7333,-105.85,22.53,64,100,2.55,MX,1710296761
132,ribeira grande,38.5167,-28.7,17.1,92,69,8.94,PT,1710296761
133,kiunga,-6.1219,141.2906,32.38,56,87,1.85,PG,1710296762
134,freetown,8.484,-13.2299,27.84,78,40,6.17,SL,1710296763
135,kachug,53.9606,105.8817,-8.63,93,100,1.36,RU,1710296763
136,qaqortoq,60.7167,-46.0333,-11.84,86,73,2.4,GL,1710296764
137,atar,20.5169,-13.0499,21.97,19,0,3.18,MR,1710296765
138,wailua homesteads,22.0669,-159.378,26.24,76,40,5.14,US,1710296766
139,pendleton,45.6721,-118.7886,8.02,66,0,9.26,US,1710296766
140,anadyr,64.75,177.4833,-20.56,83,40,3.0,RU,1710296767
141,lebu,-37.6167,-73.65,12.39,86,0,3.35,CL,1710296767
142,punta arenas,-53.15,-70.9167,7.06,76,40,3.09,CL,1710296167
143,namsos,64.4662,11.4957,-2.97,74,79,6.69,NO,1710296769
144,susuman,62.7833,148.1667,-22.68,91,94,0.97,RU,1710296769
145,horta,38.5333,-28.6333,16.68,92,70,8.94,PT,1710296770
146,whitehorse,60.7161,-135.0538,2.43,51,75,7.2,CA,1710296342
147,sabha,27.0377,14.4283,16.12,37,0,5.61,LY,1710296771
148,severo-yeniseyskiy,60.3725,93.0408,-14.68,94,100,0.45,RU,1710296485
149,hithadhoo,-0.6,73.0833,28.46,61,99,1.45,MV,1710296773
150,tateyama,34.9833,139.8667,12.96,41,20,7.72,JP,1710296773
151,zahedan,29.4963,60.8629,3.95,87,0,2.06,IR,1710296774
152,yaren,-0.5472,166.916,28.51,79,57,3.68,NR,1710296775
153,xunchang,28.4543,104.715,14.36,71,100,1.4,CN,1710296776
154,vrangel',42.7297,133.0839,1.13,54,100,2.74,RU,1710296776
155,dudinka,69.4058,86.1778,-19.66,97,100,9.83,RU,1710296777
156,al fallujah,33.3538,43.7795,7.94,35,0,0.95,IQ,1710296778
157,taltal,-25.4,-70.4833,20.46,77,4,2.02,CL,1710296778
158,morant bay,17.8815,-76.4093,27.79,80,19,3.3,JM,1710296779
159,kill devil hills,36.0307,-75.676,13.32,70,0,3.6,US,1710296779
160,bamboo flat,11.7,92.7167,26.05,89,100,0.51,IN,1710296780
161,jamestown,42.097,-79.2353,11.8,72,0,2.06,US,1710296781
162,saint-pierre,-21.3393,55.4781,25.82,69,75,3.09,RE,1710296710
163,duba,27.3513,35.6901,23.49,42,0,0.47,SA,1710296782
164,sao joao da barra,-21.6403,-41.0511,24.37,81,94,2.65,BR,1710296782
165,kenai,60.5544,-151.2583,4.05,51,0,7.2,US,1710296783
166,kapa'a,22.0752,-159.319,26.99,76,40,5.14,US,1710296783
167,san patricio,28.017,-97.5169,21.97,81,100,5.64,US,1710296784
168,edinburgh of the seven seas,-37.0676,-12.3116,17.59,77,100,8.15,SH,1710296784
169,newman,37.3138,-121.0208,16.13,70,61,2.24,US,1710296785
170,mount pearl,47.5166,-52.7813,0.18,97,40,1.03,CA,1710296786
171,lensk,60.7253,114.9278,-9.35,91,95,1.6,RU,1710296786
172,fasa,28.9383,53.6482,3.58,60,0,3.09,IR,1710296787
173,lienz,46.8289,12.769,0.73,86,100,1.99,AT,1710296788
174,bartoszyce,54.2535,20.8082,1.06,96,100,2.01,PL,1710296789
175,baiti,13.745,-14.7482,27.64,16,90,5.66,SN,1710296790
176,al bawiti,28.3492,28.8659,14.47,39,3,2.75,EG,1710296791
177,avarua,-21.2078,-159.775,28.03,89,75,6.17,CK,1710296792
178,along,28.1667,94.7667,19.03,71,94,1.1,IN,1710296792
179,brookings,44.3114,-96.7984,12.0,35,0,4.12,US,1710296641
180,hastings,50.8552,0.5729,11.66,89,100,8.05,GB,1710296794
181,alta,69.9689,23.2717,-6.41,63,100,3.6,NO,1710296795
182,champerico,14.3,-91.9167,27.93,71,3,2.39,GT,1710296796
183,hawaiian paradise park,19.5933,-154.9731,25.73,90,20,6.69,US,1710296796
184,kamen'-rybolov,44.7481,132.0403,-0.47,65,66,2.99,RU,1710296797
185,verin,41.9415,-7.4381,10.31,84,97,1.37,ES,1710296798
186,el nido,11.1858,119.3956,27.87,75,9,6.54,PH,1710296798
187,mejit,10.2753,170.8646,26.61,82,100,10.55,MH,1710296799
188,kirovskiy,45.0917,133.5136,-1.74,70,95,1.98,RU,1710296799
189,daru,-9.0763,143.2092,28.19,76,100,6.15,PG,1710296800
190,barreiras,-12.1528,-44.99,25.09,72,90,1.33,BR,1710296584
191,conde,-7.2597,-34.9075,26.7,89,40,1.03,BR,1710296801
192,mili,6.0815,171.735,27.81,82,81,11.32,MH,1710296802
193,ancud,-41.8697,-73.8203,13.85,79,100,6.29,CL,1710296802
194,klyuchi,52.2667,79.1667,-16.56,98,54,1.47,RU,1710296803
195,fisterra,42.9049,-9.2629,7.08,77,12,4.08,ES,1710296803
196,ola,59.5833,151.2833,-7.14,90,100,0.51,RU,1710296804
197,debesy,57.6529,53.8049,-18.59,100,100,1.2,RU,1710296805
198,san luis de la loma,17.2706,-100.8939,25.13,76,37,3.68,MX,1710296805
199,codrington,-38.2667,141.9667,18.22,61,100,5.51,AU,1710296806
200,reggane,26.7158,0.1714,20.79,20,99,6.24,DZ,1710296806
201,utrik,11.2278,169.8474,26.57,78,100,9.95,MH,1710296807
202,pitimbu,-7.4706,-34.8086,27.33,81,17,3.22,BR,1710296808
203,atafu village,-8.5421,-172.5159,29.16,77,100,4.33,TK,1710296809
204,rio grande,-32.035,-52.0986,23.3,85,100,7.35,BR,1710296590
205,pindi gheb,33.2402,72.2661,17.88,44,100,1.94,PK,1710296810
206,bowen,-20.0167,148.2333,29.67,55,55,4.34,AU,1710296810
207,kayangel,8.0823,134.7173,27.62,77,100,8.1,PW,1710296811
208,maych'ew,12.7875,39.5422,14.36,76,99,1.75,ET,1710296812
209,goz beida,13.95,20.55,26.13,14,66,3.94,TD,1710296812
210,dalandzadgad,43.5708,104.425,3.12,36,0,3.4,MN,1710296813
211,preobrazheniye,42.9019,133.9064,2.01,51,64,2.72,RU,1710296814
212,santa helena,-2.2311,-45.3,24.06,99,84,1.19,BR,1710296814
213,palmer,42.1584,-72.3287,10.65,64,0,3.09,US,1710296815
214,constantia,44.1833,28.65,8.38,97,100,4.07,RO,1710296816
215,tondano,1.3038,124.9112,26.05,67,95,2.25,ID,1710296816
216,bamiantong,44.9333,130.5333,-0.9,73,41,1.66,CN,1710296817
217,anloga,5.7947,0.8973,28.35,83,100,5.07,GH,1710296817
218,lata,40.1629,-8.3327,8.93,86,97,1.98,PT,1710296818
219,yangquan,37.8575,113.5633,10.38,22,100,2.26,CN,1710296818
220,alice town,25.7167,-79.3,23.02,64,0,3.89,BS,1710296819
221,happy valley-goose bay,53.3168,-60.3315,2.17,80,100,7.2,CA,1710296819
222,murzuq,25.9155,13.9184,17.14,27,75,4.26,LY,1710296820
223,qamdo,31.1667,97.2333,-0.89,43,100,2.27,CN,1710296821
224,changji,44.0167,87.3167,2.44,80,40,1.0,CN,1710296821
225,vadso,70.0744,29.7487,-5.51,73,100,4.12,NO,1710296822
226,labrador city,52.9463,-66.9114,-5.46,79,75,4.12,CA,1710296822
227,keflavik,64.0049,-22.5624,4.95,87,75,4.12,IS,1710296824
228,macon,39.8667,-88.9668,15.49,58,0,6.17,US,1710296825
229,hammerfest,70.6634,23.6821,-6.75,68,75,2.57,NO,1710296825
230,saipan,15.1355,145.701,29.39,74,100,4.12,MP,1710296826
231,belaya kholunitsa,58.84,50.8528,-17.81,100,99,1.73,RU,1710296826
232,island harbour,50.724,-1.2758,11.75,94,100,2.68,GB,1710296827
233,harper,4.375,-7.7169,27.8,87,100,3.16,LR,1710296828
234,sao felix do xingu,-6.6447,-51.995,24.18,95,100,0.35,BR,1710296828
235,crane,31.3974,-102.3501,21.4,14,0,3.18,US,1710296829
236,flying fish cove,-10.4217,105.6791,27.82,83,100,4.63,CX,1710296829
237,bayindir,38.2174,27.6474,12.34,96,60,1.5,TR,1710296830
238,wickenburg,33.9686,-112.7296,19.0,31,2,3.69,US,1710296831
239,copiapo,-27.3667,-70.3333,15.83,58,3,1.04,CL,1710296668
240,ati,13.2154,18.3353,27.7,11,100,5.03,TD,1710296832
241,sola,-13.8833,167.55,27.77,83,100,7.01,VU,1710296833
242,chonchi,-42.6128,-73.8092,12.84,82,100,3.23,CL,1710296834
243,uturoa,-16.7333,-151.4333,29.25,76,66,5.3,PF,1710296834
244,christchurch,-43.5333,172.6333,17.11,42,100,4.63,NZ,1710296596
245,itaituba,-4.2761,-55.9836,24.14,98,100,0.61,BR,1710296836
246,ust-nera,64.5667,143.2,-22.89,93,72,1.52,RU,1710296836
247,acton,51.509,-0.2762,12.21,90,100,6.17,GB,1710296837
248,speightstown,13.25,-59.65,26.34,73,23,6.82,BB,1710296837
249,zhosaly,45.4878,64.0781,-3.17,65,15,3.63,KZ,1710296839
250,suntar,62.1444,117.6319,-13.42,93,99,1.13,RU,1710296839
251,mead,47.7674,-117.3549,8.25,56,75,5.66,US,1710296840
252,peniche,39.3558,-9.3811,10.31,94,89,2.75,PT,1710296840
253,kristiansund,63.1115,7.732,2.36,69,75,1.03,NO,1710296841
254,kani keli,-12.9536,45.1033,26.59,73,83,1.01,YT,1710296842
255,ipsala,40.9212,26.3827,8.89,92,100,0.13,TR,1710296842
256,miri,4.4148,114.0089,29.08,74,40,4.63,MY,1710296843
257,kirakira,-10.4544,161.9205,29.48,76,100,3.14,SB,1710296843
258,sirte,31.2089,16.5887,15.21,74,0,4.44,LY,1710296844
259,margate,51.3813,1.3862,11.06,92,100,2.68,GB,1710296844
260,lorengau,-2.0226,147.2712,28.16,80,100,5.55,PG,1710296845
261,zaysan,47.4667,84.8667,-1.01,88,100,2.01,KZ,1710296846
262,khorixas,-20.3667,14.9667,25.51,48,90,1.41,NA,1710296847
263,haiku-pauwela,20.9219,-156.3051,27.01,68,40,5.66,US,1710296848
264,swakopmund,-22.6833,14.5333,17.47,86,90,1.34,NA,1710296848
265,vorkuta,67.5,64.0,-17.73,95,99,3.45,RU,1710296849
266,kollam,8.8833,76.6,25.52,81,6,2.42,IN,1710296849
267,yangambi,0.8102,24.4336,21.79,91,56,0.9,CD,1710296850
268,pelissanne,43.6333,5.15,10.55,71,0,1.54,FR,1710296850
269,wynyard,-41.0,145.7167,16.93,71,100,3.05,AU,1710296851
270,lerwick,60.1545,-1.1494,7.0,96,100,13.05,GB,1710296852
271,sakakah,29.9697,40.2064,12.76,32,0,4.82,SA,1710296852
272,tura,25.5198,90.2201,23.66,31,0,2.49,IN,1710296853
273,luderitz,-26.6481,15.1594,18.14,68,39,6.89,NA,1710296853
274,morondava,-20.2833,44.2833,25.94,83,98,2.05,MG,1710296854
275,camarinas,43.1311,-9.1817,7.18,77,44,3.12,ES,1710296854
276,aquiraz,-3.9014,-38.3911,28.43,82,66,1.82,BR,1710296489
277,broome,42.2506,-75.833,7.01,85,16,0.45,US,1710296856
278,berbera,10.4396,45.0143,26.2,85,48,0.49,SO,1710296856
279,conceicao da barra,-18.5933,-39.7322,24.12,91,2,2.22,BR,1710296857
280,kodinsk,58.6881,99.1844,-10.31,94,100,0.62,RU,1710296857
281,maceio,-9.6658,-35.7353,27.69,89,75,1.03,BR,1710296753
282,fale old settlement,-9.3852,-171.2468,29.76,74,99,4.06,TK,1710296859
283,szczytno,53.5626,20.9875,2.96,100,100,1.03,PL,1710296859
284,kavieng,-2.5744,150.7967,26.66,87,100,6.56,PG,1710296860
285,dunedin,-45.8742,170.5036,17.67,40,0,4.02,NZ,1710296245
286,san jose del guaviare,2.5729,-72.6459,23.52,97,100,0.83,CO,1710296861
287,marka,1.7159,44.7717,26.83,81,42,3.4,SO,1710296862
288,dembi dolo,8.5333,34.8,20.01,47,75,1.3,ET,1710296863
289,al hilaliyya,14.9398,33.234,28.64,18,66,4.67,SD,1710296863
290,morozovsk,48.3539,41.8261,-5.16,87,48,2.36,RU,1710296864
291,maragogi,-9.0122,-35.2225,27.23,84,99,3.39,BR,1710296864
292,nieves,15.3274,120.9485,31.64,50,97,3.7,PH,1710296865
293,coquimbo,-29.9533,-71.3436,16.85,88,0,1.54,CL,1710296300
294,dondaicha,21.3333,74.5667,24.12,40,0,2.55,IN,1710296866
295,alice springs,-23.7,133.8833,34.75,18,11,4.63,AU,1710296571
296,rio preto da eva,-2.6994,-59.6997,25.92,85,99,1.06,BR,1710296867
297,kayes,14.0,-11.0,31.74,15,61,2.91,ML,1710296868
298,caluula,11.9661,50.7569,26.04,77,61,5.9,SO,1710296868
299,lubang,13.8584,120.124,26.58,77,90,7.92,PH,1710296869
300,nyurba,63.2842,118.3319,-17.99,97,100,0.82,RU,1710296870
301,kapuskasing,49.4169,-82.4331,5.05,60,100,3.09,CA,1710296871
302,hailin,44.5833,129.4167,-1.86,68,96,0.78,CN,1710296871
303,basudebpur,21.1353,86.7386,26.45,83,19,2.28,IN,1710296872
304,hokuto,41.8848,140.639,2.01,38,20,7.72,JP,1710296872
305,koungou,-12.7336,45.2042,26.84,89,0,1.03,YT,1710296873
306,nha trang,12.25,109.1833,29.0,68,71,1.92,VN,1710296874
307,mutuali,-14.8706,37.0044,20.58,98,100,0.57,MZ,1710296874
308,alenquer,-1.9417,-54.7383,25.51,90,89,1.56,BR,1710296875
309,ballston spa,43.0009,-73.849,8.94,56,0,2.06,US,1710296875
310,takoradi,4.8845,-1.7554,27.46,86,100,3.53,GH,1710296876
311,fort st. john,56.2499,-120.8529,-0.06,69,20,1.54,CA,1710296790
312,hilo,19.7297,-155.09,26.27,85,20,6.69,US,1710296877
313,caleta de carquin,-11.0925,-77.6267,22.91,88,100,4.05,PE,1710296878
314,guerrero negro,27.9769,-114.0611,15.45,75,9,9.0,MX,1710296878
315,turaif,31.6725,38.6637,10.14,34,0,5.14,SA,1710296879
316,wanning,18.8003,110.3967,22.49,82,100,2.91,CN,1710296879
317,chibougamau,49.9168,-74.3659,-5.21,93,75,1.54,CA,1710296880
318,saint-francois,46.4154,3.9054,9.67,88,100,1.54,FR,1710296881
319,pacific grove,36.6177,-121.9166,14.97,79,40,5.36,US,1710296881
320,cinarcik,40.6412,29.146,10.47,88,54,2.2,TR,1710296882
321,pontianak,-0.0333,109.3333,27.99,83,20,4.12,ID,1710296882
322,tasqala,51.1167,50.3167,-10.2,98,69,3.14,KZ,1710296883
323,bac lieu,9.285,105.7244,28.73,68,95,7.07,VN,1710296883
324,hamirpur,25.95,80.15,22.12,35,0,1.59,IN,1710296884
325,afaahiti,-17.75,-149.2833,29.93,82,97,5.66,PF,1710296885
326,kununurra,-15.7667,128.7333,32.99,62,100,3.6,AU,1710296885
327,abalak,58.1286,68.5944,-22.58,100,98,0.33,RU,1710296886
328,lobujya,27.95,86.8167,-11.93,24,0,1.26,NP,1710296887
329,parksville,49.3163,-124.3195,9.41,71,12,2.57,CA,1710296887
330,paradip garh,20.3167,86.6167,27.26,81,0,3.59,IN,1710296888
331,el calafate,-50.3408,-72.2768,6.9,90,90,4.23,AR,1710296888
332,oltinko'l,40.8011,72.1634,6.49,66,100,5.75,UZ,1710296889
333,raja,8.4596,25.678,28.13,41,100,1.54,SS,1710296890
334,el hadjira,32.6134,5.5126,12.55,31,0,1.39,DZ,1710296890
335,tsaratanana,-16.7833,47.65,22.81,84,91,3.87,MG,1710296891
336,mariinsk,56.2139,87.7472,-7.27,94,100,2.5,RU,1710296892
337,marsabit,2.3284,37.9899,22.61,45,19,4.33,KE,1710296892
338,acapulco de juarez,16.8634,-99.8901,26.9,83,0,5.14,MX,1710296700
339,santo antonio,-6.3106,-35.4789,25.9,88,19,1.07,BR,1710296894
340,vernon,50.2581,-119.2691,6.2,86,100,3.09,CA,1710296733
341,iskateley,67.6803,53.1512,-13.32,90,82,5.36,RU,1710296895
342,barah,13.7,30.3667,26.68,14,29,3.5,SD,1710296895
343,hwange,-18.3693,26.5019,23.89,55,96,1.34,ZW,1710296359
344,naze,28.3667,129.4833,17.51,52,50,6.57,JP,1710296896
345,kone,-21.0595,164.8658,31.42,64,96,3.36,NC,1710296897
346,leer,53.2316,7.461,6.07,95,85,3.34,DE,1710296898
347,tralee,52.2704,-9.7026,12.0,93,100,8.08,IE,1710296898
348,ironwood,46.4547,-90.171,2.45,60,0,0.0,US,1710296899
349,zeya,53.75,127.2667,-5.29,85,100,0.92,RU,1710296899
350,caconda,-13.7333,15.0667,16.24,90,100,0.45,AO,1710296900
351,puttalam,8.0362,79.8283,25.05,75,47,2.74,LK,1710296901
352,mahibadhoo,3.7833,72.9667,27.49,72,24,1.13,MV,1710296901
353,mascoutah,38.4903,-89.7932,17.95,53,75,4.63,US,1710296902
354,lowicz,52.1071,19.9453,4.44,96,100,1.46,PL,1710296902
355,kil,59.5072,13.314,0.94,75,100,0.0,SE,1710296903
356,soe,-9.8607,124.284,20.63,95,100,3.9,ID,1710296904
357,ust-tsilma,65.441,52.1498,-4.66,90,100,4.92,RU,1710296904
358,upington,-28.4478,21.2561,22.21,23,0,2.06,ZA,1710296905
359,laojunmiao,39.8333,97.7333,4.54,22,0,2.53,CN,1710296906
360,liberal,37.0431,-100.921,15.08,25,0,4.12,US,1710296907
361,selfoss,63.9331,-20.9971,3.8,94,100,5.2,IS,1710296907
362,bandundu,-3.3167,17.3667,24.33,73,65,1.19,CD,1710296908
363,carrizal,10.3499,-66.9863,19.61,74,7,0.55,VE,1710296908
364,al fqih ben calah,32.5009,-6.6906,12.4,63,53,0.55,MA,1710296909
365,tolanaro,-25.0319,46.9987,27.04,83,20,5.14,MG,1710296910
366,nar'yan-mar,67.6713,53.087,-13.27,90,78,5.36,RU,1710296910
367,bei'an,24.5399,109.533,17.25,78,100,1.22,CN,1710296911
368,thunder bay,48.4001,-89.3168,-1.01,93,20,1.03,CA,1710296312
369,poronaysk,49.2167,143.1167,-6.16,66,3,5.53,RU,1710296912
370,vorgashor,67.5833,63.95,-18.7,97,97,3.28,RU,1710296912
371,morehead city,34.7229,-76.726,14.02,82,0,6.17,US,1710296832
372,cole harbour,44.6724,-63.4751,1.07,94,100,7.15,CA,1710296914
373,pemba,-12.974,40.5178,25.51,88,51,2.18,MZ,1710296914
374,kodiak,57.79,-152.4072,0.73,47,75,3.6,US,1710296915
375,salida,37.7058,-121.0849,15.05,72,0,4.12,US,1710296916
376,az zuwaytinah,30.9522,20.1202,15.05,71,50,4.8,LY,1710296916
377,zhob,31.3411,69.4481,9.67,73,10,0.87,PK,1710296917
378,colonia,50.9333,6.95,8.82,92,75,4.12,DE,1710296918
379,fort mcmurray,56.7268,-111.381,-0.23,64,20,4.12,CA,1710296918
380,luau,-10.7073,22.2247,17.59,97,72,0.41,AO,1710296919
381,dean funes,-30.4204,-64.3498,28.87,52,27,4.09,AR,1710296919
382,zemio,5.0314,25.1361,24.39,59,100,1.6,CF,1710296920
383,carauari,-4.8828,-66.8958,24.26,98,100,1.22,BR,1710296901
384,lecheng,25.1238,113.3254,17.78,71,97,2.05,CN,1710296921
385,hermiston,45.8404,-119.2895,10.67,61,0,11.83,US,1710296922
386,chapaev,50.2,51.1667,-2.43,87,100,4.11,KZ,1710296922
387,buala,-8.145,159.5921,28.96,82,92,2.82,SB,1710296923
388,ambon,-3.6954,128.1814,33.08,55,40,5.66,ID,1710296900
389,mamuju,-2.6748,118.8885,25.92,83,100,5.11,ID,1710296727
390,ceeldheer,3.8488,47.1806,27.48,84,19,5.02,SO,1710296925
391,itapaci,-14.9508,-49.5494,23.92,80,33,0.17,BR,1710296716
392,lihue,21.9789,-159.3672,26.58,77,40,5.14,US,1710296926
393,anna regina,7.2644,-58.5077,26.58,80,68,3.85,GY,1710296926
394,gadzhiyevo,69.2551,33.3362,-10.0,87,99,3.29,RU,1710296927
395,urubamba,-13.3047,-72.1158,16.5,88,100,2.7,PE,1710296928
396,aqadyr,48.2553,72.8483,-9.95,95,43,4.34,KZ,1710296928
397,ha'il,27.5219,41.6907,12.01,37,0,2.06,SA,1710296930
398,kailua-kona,19.6406,-155.9956,27.5,74,40,3.6,US,1710296930
399,naha,26.2125,127.6811,18.32,62,20,8.23,JP,1710296931
400,itoman,26.1247,127.6694,18.38,62,20,8.23,JP,1710296932
401,adoni,15.6333,77.2833,28.84,42,34,5.8,IN,1710296932
402,awjilah,29.1081,21.2869,15.98,40,0,6.5,LY,1710296933
403,mandalgovi,45.7625,106.2708,-1.59,63,3,2.04,MN,1710296934
404,myrtle beach,33.6891,-78.8867,14.46,74,0,5.14,US,1710296934
405,warren,39.4334,-84.1666,14.07,53,0,4.12,US,1710296762
406,galle,6.0367,80.217,25.01,77,44,3.24,LK,1710296758
407,la gi,10.6667,107.7833,28.56,65,100,7.11,VN,1710296936
408,tanjung sepat,2.6579,101.5629,30.08,74,20,1.03,MY,1710296936
409,bichura,50.5881,107.6022,-2.08,80,33,0.53,RU,1710296937
410,mabaruma,8.2,-59.7833,24.02,94,96,1.92,GY,1710296938
411,kaoma,-14.7833,24.8,18.74,92,99,1.6,ZM,1710296938
412,luba,3.4568,8.5547,28.01,87,100,1.92,GQ,1710296939
413,basco,20.4487,121.9702,22.47,60,54,12.45,PH,1710296939
414,nizhneangarsk,55.7833,109.55,-13.33,87,70,2.68,RU,1710296940
415,tupiza,-21.45,-65.7167,12.19,89,100,2.35,BO,1710296940
416,pisco,-13.7,-76.2167,22.03,78,0,5.66,PE,1710296659
417,zaozersk,69.4005,32.4476,-15.16,99,91,1.79,RU,1710296941
418,suileng,47.25,127.0833,-1.56,75,58,0.63,CN,1710296943
419,motueka,-41.1333,173.0167,17.93,72,74,4.73,NZ,1710296943
420,urangan,-25.3,152.9,28.44,67,51,4.92,AU,1710296944
421,bel ombre,-4.6167,55.4167,27.13,82,100,8.15,SC,1710296945
422,port elizabeth,-33.918,25.5701,20.16,85,20,5.14,ZA,1710296778
423,la ronge,55.1001,-105.2842,-6.86,73,20,1.54,CA,1710296946
424,vila franca do campo,37.7167,-25.4333,18.27,99,95,5.17,PT,1710296947
425,tofol,5.3248,163.0078,28.88,84,100,4.12,FM,1710296947
426,coahuayana de hidalgo,18.7,-103.6583,22.31,85,56,1.13,MX,1710296948
427,saudarkrokur,65.7461,-19.6394,-2.1,87,100,2.16,IS,1710296949
428,gunnison,38.7,-107.0673,-0.53,90,100,1.43,US,1710296951
429,lompoc,34.6391,-120.4579,16.12,88,100,5.81,US,1710296123
430,heroica caborca,30.7167,-112.15,20.8,23,54,3.57,MX,1710296953
431,gorgan,36.8387,54.4348,-1.02,100,0,0.0,IR,1710296954
432,gamba,-2.65,10.0,26.51,89,100,0.68,GA,1710296955
433,greenville,35.6127,-77.3663,14.02,67,0,2.57,US,1710296885
434,eldorado,-23.7869,-54.2836,24.4,55,10,2.3,BR,1710296703
435,kayenta,36.7278,-110.2546,8.27,37,95,4.41,US,1710296964
436,buka,40.8108,69.1986,3.73,86,92,1.18,UZ,1710296964
437,grain valley,39.015,-94.1986,20.18,77,75,6.17,US,1710296700
438,waingapu,-9.6567,120.2641,26.93,85,100,5.2,ID,1710296976
439,fomboni,-12.28,43.7425,28.48,73,97,0.61,KM,1710296976
440,klamath falls,42.2249,-121.7817,4.36,78,0,6.69,US,1710296977
441,ivdel',60.6911,60.4206,-17.67,97,87,2.68,RU,1710296978
442,northam,51.0333,-4.2167,11.33,94,100,8.21,GB,1710296979
443,antsiranana,-12.2787,49.2917,25.34,84,46,5.31,MG,1710296979
444,kerikeri,-35.2268,173.9474,24.39,74,100,0.89,NZ,1710296980
445,at taj,24.2049,23.2857,16.93,16,25,3.82,LY,1710296980
446,sarandi,-23.4436,-51.8739,25.75,53,0,4.12,BR,1710296762
447,treasure island,27.7692,-82.769,21.14,86,0,3.09,US,1710296982
448,ulsteinvik,62.3432,5.8487,4.62,78,100,0.89,NO,1710296983
449,kutum,14.2,24.6667,25.97,11,100,4.24,SD,1710296983
450,pakse,15.1167,105.7833,29.08,58,40,8.23,LA,1710296984
451,chegdomyn,51.1167,133.0167,-9.44,83,80,1.22,RU,1710296985
452,tsagan aman,47.5639,46.7218,-3.04,78,4,2.32,RU,1710296985
453,nuuk,64.1835,-51.7216,-4.66,93,100,3.6,GL,1710296945
454,ishimbay,53.4545,56.0415,-10.41,97,94,1.39,RU,1710296986
455,porbandar,21.6422,69.6093,21.18,81,7,4.48,IN,1710296987
456,richards bay,-28.783,32.0377,25.72,81,100,6.14,ZA,1710296987
457,sur,22.5667,59.5289,23.64,63,74,4.75,OM,1710296988
458,touros,-5.1989,-35.4608,27.63,79,18,2.66,BR,1710296988
459,souillac,-20.5167,57.5167,23.53,85,95,6.63,MU,1710296989
460,tokar,18.4254,37.729,24.27,87,67,4.89,SD,1710296990
461,colac,-38.3333,143.5833,18.98,57,100,1.53,AU,1710296990
462,puerto madryn,-42.7692,-65.0385,20.07,31,0,1.69,AR,1710296909
463,kota tinggi,1.7381,103.8999,30.16,63,26,4.03,MY,1710296991
464,lospalos,-8.5186,127.0025,23.58,95,100,5.49,TL,1710296992
465,devils lake,48.1128,-98.8651,5.53,86,100,2.57,US,1710296993
466,pokrovsk,48.282,37.1758,-0.64,53,100,5.92,UA,1710296994
467,sondrio,46.169,9.8692,8.21,74,79,2.51,IT,1710296995
468,baracoa,20.3467,-74.4958,25.41,81,89,4.46,CU,1710296995
469,port blair,11.6667,92.75,26.02,89,100,0.51,IN,1710296996
470,qalat,32.1058,66.9083,6.3,93,54,4.02,AF,1710296996
471,minas de marcona,-15.2119,-75.1103,18.85,80,75,5.14,PE,1710296997
472,bereket,39.2446,55.5154,6.72,63,1,2.63,TM,1710296997
473,shingu,33.7333,135.9833,10.22,47,6,5.01,JP,1710296998
474,kashgar,39.4547,75.9797,8.56,18,40,3.0,CN,1710296998
475,bronkhorstspruit,-25.8102,28.7425,16.61,63,100,3.0,ZA,1710296999
476,zima,53.9202,102.0442,-5.0,92,100,4.75,RU,1710297000
477,pulaski,34.7668,-92.3001,17.49,63,20,3.09,US,1710297000
478,inari,68.906,27.0288,-10.89,96,93,1.25,FI,1710297001
479,nisporeni,47.0814,28.1783,5.22,93,100,5.57,MD,1710297002
480,tinajo,29.0788,-13.7081,14.49,77,0,3.6,ES,1710297002
481,ji'an,27.1172,114.9793,16.6,74,100,0.76,CN,1710297004
482,diego de almagro,-26.3667,-70.05,19.47,50,3,0.26,CL,1710297006
483,mahbubnagar,16.7333,77.9833,29.13,41,15,4.8,IN,1710297006
484,kavaratti,10.5669,72.642,27.69,72,14,2.26,IN,1710297007
485,labuan,5.2767,115.2417,29.2,70,20,3.6,MY,1710297008
486,taro,-8.3862,115.28,27.0,70,100,1.49,ID,1710297009
487,arkhangel'sk,64.5401,40.5433,-4.93,92,40,3.0,RU,1710297010
488,watertown,42.3709,-71.1828,8.84,48,0,4.12,US,1710297010
489,weno,7.4515,151.8468,30.97,66,100,4.63,FM,1710297011
490,brisas de zicatela,15.8369,-97.0419,28.29,74,20,2.57,MX,1710297012
491,west mersea,51.778,0.9187,12.45,88,100,5.45,GB,1710297012
492,ternate,0.8,127.4,29.31,69,98,3.14,ID,1710297013
493,gouyave,12.1646,-61.7296,26.43,78,20,4.12,GD,1710297014
494,san pedro pochutla,15.7333,-96.4667,27.84,75,0,2.43,MX,1710297015
495,rio pardo de minas,-15.6097,-42.5397,20.96,95,13,1.28,BR,1710296826
496,cabedelo,-6.9811,-34.8339,27.37,82,22,2.48,BR,1710297016
497,leticia,-4.2153,-69.9406,25.03,94,20,1.03,CO,1710297017
498,ngama,11.7833,17.1667,26.69,13,97,3.86,TD,1710297018
499,klaksvik,62.2266,-6.589,5.51,90,97,8.75,FO,1710297018
500,guarapari,-20.6667,-40.4975,25.5,86,97,2.34,BR,1710297019
501,portland,45.5234,-122.6762,9.32,74,75,4.63,US,1710296346
502,kurchum,48.5722,83.6542,-0.2,98,100,3.99,KZ,1710297021
503,gutao,37.2025,112.1781,11.32,25,100,1.24,CN,1710297021
504,shevchenko,48.5,35.0,1.81,51,100,5.58,UA,1710297022
505,ust'-kut,56.7938,105.7672,-9.2,92,100,1.79,RU,1710297023
506,la passe,45.5549,-0.8967,9.13,94,83,2.6,FR,1710297024
507,valky,49.8387,35.6207,-0.78,54,100,5.47,UA,1710297025
508,manokwari,-0.8667,134.0833,29.19,72,79,5.67,ID,1710297026
509,walvis bay,-22.9575,14.5053,17.53,88,50,3.6,NA,1710297027
510,namibe,-15.1961,12.1522,25.83,70,86,2.9,AO,1710297027
511,vung tau,10.346,107.0843,28.22,70,100,8.21,VN,1710297029
512,tongchuanshi,35.0806,109.0897,11.2,46,100,3.15,CN,1710297031
513,mulanje,-16.0316,35.5,22.0,93,100,2.28,MW,1710297032
514,nogliki,51.8333,143.1667,-10.92,84,43,3.58,RU,1710297033
515,smithers,54.7804,-127.1743,6.18,52,75,3.6,CA,1710297034
516,east ballina,-28.8667,153.5833,27.67,54,26,4.89,AU,1710297035
517,isangel,-19.55,169.2667,28.06,83,100,1.79,VU,1710297036
518,yangshuo,24.7808,110.4897,17.89,75,100,1.21,CN,1710297038
519,pandhana,21.7,76.2167,25.54,29,25,4.73,IN,1710297038
520,san pietro in casale,44.6996,11.4022,11.41,77,100,0.52,IT,1710297039
521,mount gambier,-37.8333,140.7667,19.9,58,100,3.94,AU,1710296926
522,cananea,30.95,-110.3,14.67,26,47,2.62,MX,1710297040
523,port augusta,-32.5,137.7667,36.97,15,75,2.46,AU,1710297041
524,guiberoua,6.2392,-6.1727,25.13,91,100,1.15,CI,1710297042
525,san antonio,29.4241,-98.4936,22.49,73,75,5.14,US,1710296779
526,hobyo,5.3505,48.5268,27.37,73,16,6.9,SO,1710297043
527,sanctuary point,-35.1114,150.629,26.57,59,96,3.15,AU,1710297043
528,khabarovsk,48.4808,135.0928,-3.11,54,0,3.0,RU,1710297044
529,armacao de buzios,-22.7469,-41.8817,24.03,82,30,1.02,BR,1710297045
530,lewiston orchards,46.3804,-116.9754,8.95,64,75,5.14,US,1710297045
531,ladik,40.9106,35.8919,2.49,50,100,3.02,TR,1710297046
532,namtsy,62.7161,129.6658,-13.46,87,100,1.91,RU,1710297047
533,high rock,26.6208,-78.2833,18.01,67,44,3.64,BS,1710297047
534,talodi,10.6325,30.3797,28.6,13,20,1.99,SD,1710297048
535,uyskoye,54.3775,60.0047,-18.54,100,96,1.06,RU,1710297048
536,nanao,37.05,136.9667,9.04,51,98,5.29,JP,1710297049
537,hanceville,34.0607,-86.7675,14.95,76,100,1.69,US,1710297050
538,chui,-33.6971,-53.4616,22.06,93,100,4.56,UY,1710297050
539,timbiqui,2.7717,-77.6654,25.44,95,94,0.63,CO,1710297051
540,bodaybo,57.8506,114.1933,-4.02,80,100,4.85,RU,1710297051
541,korla,41.7597,86.1469,10.72,30,5,1.04,CN,1710297052
542,horodnye,45.8908,28.8483,8.36,98,100,3.36,UA,1710297053
543,chiroqchi,39.0336,66.5722,3.38,81,50,1.71,UZ,1710297053
544,nelson bay,-32.7167,152.15,27.83,68,34,5.81,AU,1710297054
545,salalah,17.0151,54.0924,27.05,78,75,2.06,OM,1710297055
546,katsuren-haebaru,26.3369,127.8719,18.38,56,20,6.69,JP,1710297055
547,mammoth lakes,37.6485,-118.9721,2.4,69,0,7.72,US,1710297056
548,ellsworth,44.5434,-68.4195,2.86,72,100,5.66,US,1710297056
549,al mindak,20.1588,41.2834,15.78,54,58,1.48,SA,1710297057
550,sept-iles,50.2001,-66.3821,3.29,75,100,5.14,CA,1710297058
551,mont-laurier,46.5501,-75.4993,-1.21,88,41,0.94,CA,1710297059
552,acarau,-2.8856,-40.12,26.53,86,100,3.21,BR,1710297059
553,hadibu,12.65,54.0333,25.3,79,9,3.59,YE,1710297060
554,lee acres,35.1487,-106.647,17.66,21,75,4.63,US,1710297061
555,kasaragod,12.5,75.0,27.77,72,9,1.22,IN,1710297061
556,gannan,47.9147,123.5031,2.12,62,5,3.58,CN,1710297062
557,gamay,12.3854,125.2979,28.93,59,89,3.98,PH,1710297063
558,la trinidad,16.455,120.5875,24.98,47,98,1.16,PH,1710297064
559,bangui,4.3612,18.555,28.24,47,98,1.85,CF,1710297064
560,berdigestyakh,62.0989,126.6992,-10.75,89,100,2.34,RU,1710297065
561,sucre,-19.0333,-65.2627,16.95,71,100,1.13,BO,1710297026
562,celle,52.6226,10.0805,6.47,79,100,2.11,DE,1710297066
563,rey bouba,8.6724,14.1786,28.02,14,100,0.89,CM,1710297067
564,motygino,58.1831,94.7592,-11.23,96,100,1.79,RU,1710297067
565,miracema do tocantins,-9.5618,-48.3967,25.91,76,64,1.07,BR,1710297068
566,cooper's town,26.8667,-77.5167,21.1,64,65,3.33,BS,1710297068
567,nema,57.5067,50.5011,-18.05,100,100,1.89,RU,1710297069
568,pavilosta,56.8879,21.1859,1.95,98,100,2.99,LV,1710297070
569,lefkada,38.8275,20.7019,9.95,93,75,0.0,GR,1710297070
570,bethlehem,-1.4558,-48.5044,26.02,94,0,3.09,BR,1710297071
571,podporozh'ye,60.9112,34.1706,-7.65,96,68,1.7,RU,1710297072
572,fortuna,40.5982,-124.1573,10.37,90,75,0.0,US,1710297072
573,alesund,62.4723,6.1549,4.63,82,100,2.06,NO,1710297073
574,dolores,-36.3132,-57.6792,19.31,96,95,2.32,AR,1710296934
575,alofi,-19.0595,-169.9187,28.94,84,75,4.63,NU,1710296968
576,kuusamo,65.9667,29.1833,-4.98,86,100,2.06,FI,1710297075
577,umluj,25.0213,37.2685,24.39,51,24,2.5,SA,1710297075
578,winnemucca,40.973,-117.7357,8.03,49,75,5.14,US,1710297076
579,pasuquin,18.3328,120.6177,29.97,51,40,3.09,PH,1710297077
580,wakkanai,45.4094,141.6739,-2.01,71,75,6.17,JP,1710297078
581,constitucion,-35.3333,-72.4167,12.97,95,2,3.99,CL,1710297072
582,ust'-ilimsk,58.0006,102.6619,-11.42,95,100,0.89,RU,1710297079
583,tsrar sharif,33.8667,74.7667,6.85,70,100,0.63,IN,1710297080
584,vakfikebir,41.0458,39.2764,20.93,51,97,4.83,TR,1710297081
585,usinsk,65.9939,57.5281,-7.18,95,100,9.39,RU,1710297081
586,onega,63.9061,38.1404,-5.12,97,100,3.37,RU,1710297082
